index,airport_id,name,city,country,IATA,ICAO,latitude,longitude,altitude,DST,Tz_database_time_zone	,type,source,google_airport_name,google_place_id,google_airport_full_address,airport_rating,number_ratings,website,total_routes
0,5,Port Moresby Jacksons International Airport,Port Moresby,Papua New Guinea,POM,AYPY,-9.443380355834961,147.22000122070312,146,U,Pacific/Port_Moresby,airport,OurAirports,Jacksons International Airport,ChIJvXvxaxQ3AmkRl5B0QwWq_ck,"Jacksons International Airport, Morea-Tobo Rd, Port Moresby 121, Papua New Guinea",3.4,129,not found,52
1,8,Godthaab / Nuuk Airport,Godthaab,Greenland,GOH,BGGH,64.19090271,-51.67810058590001,283,E,America/Godthab,airport,OurAirports,Nuuk International Airport,ChIJVXjA47sNok4Rx7SDO-bE_q0,"Nuuk International Airport, Aqisseqarajooq, Nuuk 3905, Greenland",4.2,131,http://www.mit.gl/en/todays-flights/airports/nuuk-airport/,9
2,9,Kangerlussuaq Airport,Sondrestrom,Greenland,SFJ,BGSF,67.0122218992,-50.7116031647,165,E,America/Godthab,airport,OurAirports,Kangerlussuaq Airport,ChIJ83fMY82slk4Rqpu8RZNvCSQ,"Kangerlussuaq Airport, Søndre Strømfjord, Greenland",4.0,52,http://mit.gl/,8
3,10,Thule Air Base,Thule,Greenland,THU,BGTL,76.5311965942,-68.70320129390001,251,E,America/Thule,airport,OurAirports,Greenland,ChIJmQSJRNElNk4RrhAnzkxQ6pM,Greenland,4.3,106,not found,2
4,16,Keflavik International Airport,Keflavik,Iceland,KEF,BIKF,63.985000610352,-22.605600357055998,171,N,Atlantic/Reykjavik,airport,OurAirports,Keflavik - Airport,ChIJEzIdWv39KUkRlTYaQxU_PYo,"Blikavöllur 2, 235 Keflavik - Airport, Iceland",3.9,398,http://hotelairport.is/,45
5,33,Nanaimo Airport,Nanaimo,Canada,YCD,CYCD,49.054970224899996,-123.869862556,92,A,America/Vancouver,airport,OurAirports,Nanaimo Airport,ChIJq2sLTqaviFQRX8wG9hoHwJ8,"Nanaimo Airport, 3350 Spitfire Way, Cassidy, BC V0R 1H0, Canada",4.0,53,http://www.nanaimoairport.com/,2
6,49,Edmonton International Airport,Edmonton,Canada,YEG,CYEG,53.309700012200004,-113.580001831,2373,A,America/Edmonton,airport,OurAirports,Edmonton International Airport,ChIJdbCRdWH3n1MRt4Q97QF2hPk,"Edmonton Int'l Airport (YEG), 1000 Airport Rd, Edmonton International Airport, AB T9E 0V3, Canada",3.9,792,http://flyeia.com/,68
7,55,Iqaluit Airport,Iqaluit,Canada,YFB,CYFB,63.756402,-68.555801,110,A,America/Toronto,airport,OurAirports,Iqaluit Airport (YFB),ChIJcZUPLV8W000R805RkCdAYtA,"Iqaluit Airport (YFB), 1126 Mivvik Street, Iqaluit, NU X0A 0H0, Canada",4.0,71,not found,18
8,56,Fredericton Airport,Fredericton,Canada,YFC,CYFC,45.86890029907226,-66.53720092773439,68,A,America/Halifax,airport,OurAirports,YFC,ChIJ99NdFWmepkwRoRISNrFJXV4,"YFC, 22-2570 Route 102 Highway, Lincoln, NB E3B 9G1, Canada",3.5,58,http://www.frederictonairport.ca/,4
9,61,Kingston Norman Rogers Airport,Kingston,Canada,YGK,CYGK,44.22529983520508,-76.5969009399414,305,A,America/Toronto,airport,OurAirports,Kingston Airport,ChIJK_jfrCOt0kwRNuCfdPc7CiM,"Kingston Airport, 1114 Len Birchall Way, Kingston, ON K7M 9A1, Canada",3.4,52,https://www.cityofkingston.ca/residents/airport,1
10,70,John C. Munro Hamilton International Airport,Hamilton,Canada,YHM,CYHM,43.173599243199995,-79.93499755859999,780,A,America/Toronto,airport,OurAirports,John C. Munro Hamilton International Airport,ChIJXwF5ncOPLIgRPLttsEGrOmI,"John C. Munro Hamilton International Airport, 9300 Airport Rd #2206, Mount Hope, ON L0R 1W0, Canada",4.0,321,http://flyhamilton.ca/,4
11,71,Montréal / Saint-Hubert Airport,Montreal,Canada,YHU,CYHU,45.5175018311,-73.4169006348,90,A,America/Toronto,airport,OurAirports,Aéroport Montréal Saint-Hubert Longueuil,ChIJg8vasBgayUwRK8Twn2FmTL4,"Aéroport Montréal Saint-Hubert Longueuil, 5700 Route de l'Aéroport, Saint-Hubert, QC J3Y 8Y9, Canada",3.6,61,http://www.dashl.ca/,4
12,73,Halifax / Stanfield International Airport,Halifax,Canada,YHZ,CYHZ,44.880798339799995,-63.50859832760001,477,A,America/Halifax,airport,OurAirports,Halifax Stanfield International Airport,ChIJW4zLMW-AWUsRgzoGC44zC_o,"Halifax Stanfield International Airport (YHZ), 1 Bell Blvd, Enfield, NS B2T 1K2, Canada",4.1,479,http://www.flyhalifax.com/,43
13,87,Kelowna International Airport,Kelowna,Canada,YLW,CYLW,49.9561004639,-119.377998352,1421,A,America/Vancouver,airport,OurAirports,Kelowna International Airport,ChIJoWZH6VXzfVMRRoNr5m4fTms,"Kelowna International Airport, 5533 Airport Way, Kelowna, BC V1V 1S1, Canada",3.8,189,https://ylw.kelowna.ca/,15
14,90,Fort McMurray Airport,Fort Mcmurray,Canada,YMM,CYMM,56.653301238999994,-111.22200012200001,1211,A,America/Edmonton,airport,OurAirports,Fort McMurray International Airport,ChIJ61gh3o4EsFMRYl3lcKVrTqg,"Fort McMurray International Airport, 100 Snow Bird Way, Fort McMurray, AB T9H 0G3, Canada",3.7,79,http://www.flyymm.com/,12
15,100,Ottawa Macdonald-Cartier International Airport,Ottawa,Canada,YOW,CYOW,45.3224983215332,-75.66919708251953,374,A,America/Toronto,airport,OurAirports,Ottawa International Airport,ChIJ4QbSBj8IzkwRGi0ILu03_VA,"Ottawa International Airport (YOW), 1000 Airport Parkway Private, Ottawa, ON K1V 9B4, Canada",4.3,708,http://www.yow.ca/,45
16,111,Quebec Jean Lesage International Airport,Quebec,Canada,YQB,CYQB,46.7911,-71.393303,244,A,America/Toronto,airport,OurAirports,Québec City Jean Lesage International Airport,ChIJ8xZM2YWZuEwRajIH3Zf0Yl0,"Québec City Jean Lesage International Airport (YQB), 505 Rue Principale, Québec, QC G2G 0J4, Canada",3.7,462,http://www.aeroportdequebec.com/,28
17,113,Windsor Airport,Windsor,Canada,YQG,CYQG,42.27560043334961,-82.95559692382812,622,A,America/Toronto,airport,OurAirports,Windsor International Airport,ChIJebrO9ckrO4gR4aKo1gSO8fA,"Windsor International Airport, 3200 County Rd 42 #200, Windsor, ON N8V 0A1, Canada",3.9,116,http://www.yqg.ca/,3
18,117,Greater Moncton International Airport,Moncton,Canada,YQM,CYQM,46.11220169067383,-64.67859649658203,232,A,America/Halifax,airport,OurAirports,Greater Moncton Roméo LeBlanc International Airport,ChIJVf-eBUy8oEwR1CWL_JwE8u0,"Greater Moncton Roméo LeBlanc International Airport, 777 Aviation Ave #12, Dieppe, NB E1A 7Z5, Canada",4.0,107,http://cyqm.ca/,10
19,120,Regina International Airport,Regina,Canada,YQR,CYQR,50.43190002441406,-104.66600036621094,1894,N,America/Regina,airport,OurAirports,Regina International Airport,ChIJH1s-HOkdHFMR83v_yYYsg-8,"Regina International Airport, 1-5201 Regina Ave, Regina, SK S4W 1B3, Canada",3.7,138,http://www.yqr.ca/,16
20,121,Thunder Bay Airport,Thunder Bay,Canada,YQT,CYQT,48.37189865112305,-89.32389831542969,653,A,America/Toronto,airport,OurAirports,Thunder Bay International Airport,ChIJFcSVWCfgWE0RufdV3V5F414,"Thunder Bay International Airport (YQT), 100 Princess St, Thunder Bay, ON P7E 6S2, Canada",3.5,78,http://www.tbairport.on.ca/,13
21,122,Grande Prairie Airport,Grande Prairie,Canada,YQU,CYQU,55.1796989441,-118.885002136,2195,A,America/Edmonton,airport,OurAirports,Grande Prairie Airport (CYQU),ChIJDwXemtKTkFMRQIaNh-h64To,"Grande Prairie Airport (CYQU), 10610 Airport Dr, Grande Prairie, AB T8V 7Z5, Canada",3.7,51,http://grandeprairieairport.com/,4
22,125,Gander International Airport,Gander,Canada,YQX,CYQX,48.9369010925293,-54.56809997558594,496,A,America/St_Johns,airport,OurAirports,Gander International Airport,ChIJpRSeODONdksRmxTyngTSbzc,"Gander International Airport, 1000 James Blvd, Gander, NL A1V 1W8, Canada",4.4,59,http://www.ganderairport.com/,3
23,133,Sudbury Airport,Sudbury,Canada,YSB,CYSB,46.625,-80.79889678955078,1141,A,America/Toronto,airport,OurAirports,Greater Sudbury Airport,ChIJhd1cB0EPL00RiAQeQRKo4RQ,"Greater Sudbury Airport, 5000 Air Terminal Dr, Garson, ON P3L 1V4, Canada",3.5,65,http://www.flysudbury.ca/,6
24,135,Saint John Airport,St. John,Canada,YSJ,CYSJ,45.31610107421875,-65.89029693603516,357,A,America/Halifax,airport,OurAirports,Saint John Airport,ChIJZ8cE_dSvp0wRbB9_LcAewqQ,"Saint John Airport, 4180 Loch Lomond Rd, Saint John, NB E2N 1L7, Canada",3.9,54,http://www.saintjohnairport.com/,3
25,136,Fort Smith Airport,Fort Smith,Canada,YSM,CYSM,60.020301818847656,-111.96199798583984,671,A,America/Edmonton,airport,OurAirports,Fort Smith Regional Airport,ChIJmwPq8PGyy4cR-6Or_Iou-0k,"Fort Smith Regional Airport (FSM), 6700 McKennon Blvd #200, Fort Smith, AR 72903, USA",3.8,66,http://www.fortsmithairport.com/,4
26,144,Billy Bishop Toronto City Centre Airport,Toronto,Canada,YTZ,CYTZ,43.627499,-79.396202,252,A,America/Toronto,airport,OurAirports,Billy Bishop Toronto City Airport,ChIJB6GTVSM1K4gRdMRgJYiBKAQ,"Billy Bishop Toronto City Airport, 2 Eireann Quay, Toronto, ON M5V 1A1, Canada",4.2,678,http://www.torontoport.com/airport.aspx,14
27,146,Montreal / Pierre Elliott Trudeau International Airport,Montreal,Canada,YUL,CYUL,45.4706001282,-73.7407989502,118,A,America/Toronto,airport,OurAirports,Montréal-Pierre Elliott Trudeau International Airport,ChIJK8nYU3c9yUwRjWcUEHmoMB4,"Montréal-Pierre Elliott Trudeau International Airport (YUL), boul. Roméo-Vachon N, Dorval, QC H4Y 1H1, Canada",3.7,2808,https://www.admtl.com/,185
28,147,Repulse Bay Airport,Repulse Bay,Canada,YUT,CYUT,66.5214004517,-86.22470092770003,80,A,America/Winnipeg,airport,OurAirports,Minneapolis−Saint Paul International Airport,ChIJB2rAhSov9ocRkTV4eHzT0ys,"Minneapolis−Saint Paul International Airport (MSP), Minnesota, USA",4.0,2176,http://www.mspairport.com/,3
29,156,Vancouver International Airport,Vancouver,Canada,YVR,CYVR,49.193901061999995,-123.183998108,14,A,America/Vancouver,airport,OurAirports,Vancouver International Airport,ChIJm6MnhjQLhlQRhIA0hqzMaLo,"Vancouver International Airport (YVR), 3211 Grant McConachie Way, Richmond, BC V7B 0A4, Canada",4.1,3152,http://www.yvr.ca/,158
30,160,Winnipeg / James Armstrong Richardson International Airport,Winnipeg,Canada,YWG,CYWG,49.909999847399995,-97.2398986816,783,A,America/Winnipeg,airport,OurAirports,Winnipeg James Armstrong Richardson International Airport,ChIJ2wn0OiRz6lIRWGtqm2s8Hbw,"Winnipeg James Armstrong Richardson International Airport (YWG), 2000 Wellington Ave, Winnipeg, MB R3H 1C2, Canada",4.1,477,http://www.waa.ca/,41
31,166,Saskatoon John G. Diefenbaker International Airport,Saskatoon,Canada,YXE,CYXE,52.170799255371094,-106.6999969482422,1653,N,America/Regina,airport,OurAirports,Saskatoon John G. Diefenbaker International Airport,ChIJg4rWErP3BFMRc2_MaQVIHLw,"Saskatoon John G. Diefenbaker International Airport (YXE), 2625 Airport Dr, Saskatoon, SK S7L 7L1, Canada",3.8,224,https://skyxe.ca/,15
32,174,London Airport,London,Canada,YXU,CYXU,43.035599,-81.1539,912,A,America/Toronto,airport,OurAirports,London International Airport,ChIJOfcJ5iWTLogRj6cLS9-4J2s,"London International Airport, 1750 Crumlin Rd, London, ON N5V 3B6, Canada",4.1,234,http://flylondon.ca/,6
33,175,Abbotsford Airport,Abbotsford,Canada,YXX,CYXX,49.02529907226562,-122.36100006103516,195,A,America/Vancouver,airport,OurAirports,Abbotsford International Airport,ChIJHeMm52G1hVQR8vmdAEhovKQ,"Abbotsford Int'l Airport, 30440 Liberator Ave, Abbotsford, BC V2T 6H5, Canada",3.6,199,http://www.abbotsfordairport.ca/,2
34,178,Calgary International Airport,Calgary,Canada,YYC,CYYC,51.113899231000005,-114.019996643,3557,A,America/Edmonton,airport,OurAirports,Calgary International Airport,ChIJdzv2ew9kcVMRV3S8XB-H6ds,"Calgary International Airport (YYC), 2000 Airport Rd NE, Calgary, AB T2E 6W5, Canada",3.7,1659,http://www.yyc.com/,115
35,182,Charlottetown Airport,Charlottetown,Canada,YYG,CYYG,46.290000915527344,-63.12110137939453,160,A,America/Halifax,airport,OurAirports,Charlottetown Airport,ChIJaSOA4aSyX0sR2rdeLsMMgFA,"Charlottetown Airport, 250 Maple Hills Ave #132, Charlottetown, PE C1C 1N2, Canada",3.8,99,http://www.flypei.com/,4
36,184,Victoria International Airport,Victoria,Canada,YYJ,CYYJ,48.646900177,-123.426002502,63,A,America/Vancouver,airport,OurAirports,Victoria International Airport,ChIJrRDzO2Boj1QRNCdIenv189M,"Victoria International Airport (YYJ), 1640 Electra Blvd, Sidney, BC V8L 5V4, Canada",4.1,231,http://www.victoriaairport.com/,13
37,189,St. John's International Airport,St. John's,Canada,YYT,CYYT,47.61859893800001,-52.751899719200004,461,A,America/St_Johns,airport,OurAirports,St. John's International Airport,ChIJSXAEAYSmDEsRHbihpJNP2Kg,"St. John's International Airport (YYT), 100 World Pkwy, St. John's, NL A1A 5T2, Canada",3.8,209,http://www.stjohnsairport.com/index/index.cfm,22
38,193,Lester B. Pearson International Airport,Toronto,Canada,YYZ,CYYZ,43.6772003174,-79.63059997559999,569,A,America/Toronto,airport,OurAirports,Toronto Pearson International Airport,ChIJkdQtwEo5K4gRxQ4DxOldHbQ,"Toronto Pearson International Airport (YYZ), 6301 Silver Dart Dr, Mississauga, ON L5P 1B2, Canada",3.6,6110,http://www.torontopearson.com/,319
39,196,Yellowknife Airport,Yellowknife,Canada,YZF,CYZF,62.46279907226562,-114.44000244140624,675,A,America/Edmonton,airport,OurAirports,Yellowknife Airport,ChIJX2PF-kXx0VMRpXVXmkw5dvE,"Yellowknife Airport, 1 Yellowknife Hwy, Yellowknife, NT X1A 3T2, Canada",3.7,107,http://www.dot.gov.nt.ca/Airports/Yellowknife,30
40,209,Soummam Airport,Bejaja,Algeria,BJA,DAAE,36.712001800500005,5.0699200630200005,20,N,Africa/Algiers,airport,OurAirports,Soummam – Abane Ramdane Airport,ChIJmfR9xijN8hIRC5Y1GXOjzT8,"Soummam – Abane Ramdane Airport, Béjaïa 06000, Algeria",3.7,139,http://www.egsa-alger.dz/,6
41,210,Houari Boumediene Airport,Algier,Algeria,ALG,DAAG,36.691001892089844,3.215409994125366,82,N,Africa/Algiers,airport,OurAirports,Houari Boumediene Airport,ChIJh_gaMa9RjhIRRO3vmuUF6hs,"Houari Boumediene Airport, Dar El Beïda, Algeria",3.6,1255,http://www.egsa-alger.dz,88
42,216,Aguenar – Hadj Bey Akhamok Airport,Tamanrasset,Algeria,TMR,DAAT,22.8115005493,5.45107984543,4518,N,Africa/Algiers,airport,OurAirports,Aguenar – Hadj Bey Akhamok Airport,ChIJDT0Gh39sIBIRIa-FwpLJEnQ,"Aguenar – Hadj Bey Akhamok Airport, Tamanrasset, Algeria",4.1,57,not found,4
43,220,Rabah Bitat Airport,Annaba,Algeria,AAE,DABB,36.822201,7.8091740000000005,16,N,Africa/Algiers,airport,OurAirports,Rabah Bitat Airport,ChIJPcyslqan-hIRM5PP6srKO2U,"Rabah Bitat Airport, El Bouni, Algeria",3.7,148,http://www.aeroport-d-annaba-rabah-bitat.com/,9
44,221,Mohamed Boudiaf International Airport,Constantine,Algeria,CZL,DABC,36.2760009765625,6.620389938354492,2265,N,Africa/Algiers,airport,OurAirports,Aéroport de Constantine Mohamed BOUDIAF (CZL),ChIJZRIZWbVx8RIR1HbqE8VLNNY,"Aéroport de Constantine Mohamed BOUDIAF (CZL), Constantine, Algeria",3.7,258,http://www.egsa-constantine.dz/,16
45,228,Ech Cheliff Airport,Ech-cheliff,Algeria,CFK,DAOI,36.212699890100005,1.33176994324,463,N,Africa/Algiers,airport,OurAirports,Chlef International Airport,ChIJ1180wuTHgxIRSkweXtk08g8,"Chlef International Airport, Aboubakr Belkaid Airport, Chlef 02000, Algeria",3.7,72,not found,1
46,230,Zenata – Messali El Hadj Airport,Tlemcen,Algeria,TLM,DAON,35.0167007446,-1.4500000476800001,814,N,Africa/Algiers,airport,OurAirports,Messali Hadj Airport,ChIJ4dNm-kPDeA0R2OtfV62fChQ,"Messali Hadj Airport, Algeria",4.2,66,not found,6
47,231,Es Senia Airport,Oran,Algeria,ORN,DAOO,35.6239013672,-0.6211829781529999,295,N,Africa/Algiers,airport,OurAirports,Oran International Airport Ahmed Ben Bella,ChIJ6f2RLG-Kfg0RTkjuKQICm2U,"Oran International Airport Ahmed Ben Bella, Es Senia, Oran, Algeria",3.4,303,http://lesaeroportsdoran.dz/,34
48,234,Touat Cheikh Sidi Mohamed Belkebir Airport,Adrar,Algeria,AZR,DAUA,27.83760070800781,-0.1864140033721924,919,N,Africa/Algiers,airport,OurAirports,Aeroport Touat Cheikh Sidi Mohamed Belkebir,ChIJKSJH1J6f9Q0RM6EGFuNqq3s,"Aeroport Touat Cheikh Sidi Mohamed Belkebir, Adrar, Algeria",3.5,55,not found,6
49,235,Biskra Airport,Biskra,Algeria,BSK,DAUB,34.793300628699996,5.73823022842,289,N,Africa/Algiers,airport,OurAirports,Aéroport de Biskra - Mohamed Khider BSK,ChIJawFu6aCg9RIRYRvjOlsfQ2Y,"Aéroport de Biskra - Mohamed Khider BSK, Biskra, Algeria",3.7,75,http://www.egsa-constantine.dz/,4
50,237,Noumérat - Moufdi Zakaria Airport,Ghardaia,Algeria,GHA,DAUG,32.38410186767578,3.7941100597381587,1512,N,Africa/Algiers,airport,OurAirports,Algeria,ChIJlZFrtl6BZhIRxCdeeoUxhwo,Algeria,3.9,55,not found,4
51,238,Oued Irara Airport,Hassi Messaoud,Algeria,HME,DAUH,31.673000335700003,6.140439987180001,463,N,Africa/Algiers,airport,OurAirports,"Hassi Messaoud, Oued Irara - Krim Belkacem Airport",ChIJs-9y7Pe5XBIR58hSTe1kzvk,"Hassi Messaoud, Oued Irara - Krim Belkacem Airport, Hassi Messaoud, Algeria",3.4,108,not found,6
52,239,In Salah Airport,In Salah,Algeria,INZ,DAUI,27.2509994507,2.51202011108,896,N,Africa/Algiers,airport,OurAirports,Dallas/Fort Worth International Airport,ChIJpyoiDWYqTIYRHCB9Bl4_MnM,"DFW International Airport (DFW), 2400 Aviation Dr, DFW Airport, TX 75261, USA",3.7,5187,http://www.dfwairport.com/,2
53,245,Cadjehoun Airport,Cotonou,Benin,COO,DBBB,6.357230186462402,2.384350061416626,19,N,Africa/Porto-Novo,airport,OurAirports,Cardinal Bernadin Gantin de Cotonou International Airport,ChIJWV7vPCtUIxARGl6_6bQiRKk,"Cardinal Bernadin Gantin de Cotonou International Airport (COO), Rue 2100, Cotonou, Benin",3.5,271,http://www.aeroport-cotonou.com/,41
54,246,Ouagadougou Airport,Ouagadougou,Burkina Faso,OUA,DFFD,12.3532,-1.51242,1037,N,Africa/Ouagadougou,airport,OurAirports,Ouagadougou Airport,ChIJC8BeUgS-Lg4RrsG6IgBdD-E,"Ouagadougou Airport (OUA), Avenue De L'Aéroport, Ouagadougou, Burkina Faso",3.7,216,https://ouagadougou-aeroport.bf/fr/,33
55,248,Kotoka International Airport,Accra,Ghana,ACC,DGAA,5.605189800262451,-0.16678600013256073,205,N,Africa/Accra,airport,OurAirports,Kotoka International Airport,ChIJfbhy_x-b3w8RYQX6XbroL_8,"Kotoka International Airport, Airport Rd, Accra, Ghana",3.9,804,http://www.gacl.com.gh/,54
56,252,Takoradi Airport,Takoradi,Ghana,TKD,DGTK,4.896059989929199,-1.7747600078582764,21,N,Africa/Accra,airport,OurAirports,Aeroportul Takoradi,ChIJU4hRB9555w8R29cC6kMOc90,"Aeroportul Takoradi, Takoradi, Ghana",3.7,68,not found,2
57,253,Port Bouet Airport,Abidjan,Cote d'Ivoire,ABJ,DIAP,5.261390209197998,-3.9262900352478014,21,N,Africa/Abidjan,airport,OurAirports,Aéroport Félix Houphouët Boigny,ChIJDR34GT7jY0cR4RztL7BEOy4,"Aéroport Félix Houphouët Boigny, 07 BP 30 Abidjan 07, Côte d’Ivoire",3.9,360,http://www.abidjan-aeroport.com/,50
58,260,Nnamdi Azikiwe International Airport,Abuja,Nigeria,ABV,DNAA,9.006790161132812,7.263169765472412,1123,N,Africa/Lagos,airport,OurAirports,"Nnamdi Azikiwe International Airport, Abuja",ChIJVVVVVUEKThAR7SRWL6dX9wk,"Nnamdi Azikiwe International Airport, Abuja, Abuja, Nigeria",3.7,510,http://www.faan.gov.ng/nnamdi-azikwe-international-airport/,30
59,262,Benin Airport,Benin,Nigeria,BNI,DNBE,6.3169798851013175,5.599500179290772,258,N,Africa/Lagos,airport,OurAirports,Benin Airport,ChIJ0UgQg0nSQBARHIw3SAbkc6I,"Benin Airport, Airport Rd, Ogogugbo, Benin City, Nigeria",3.5,431,http://www.faan.gov.ng/benin-airport/,2
60,264,Akanu Ibiam International Airport,Enugu,Nigeria,ENU,DNEN,6.4742698669433585,7.561960220336914,466,N,Africa/Lagos,airport,OurAirports,Aeroportul Akanu Ibiam,ChIJKeX-qVakRBARkmB2FntfUgE,"Aeroportul Akanu Ibiam, Enugu, Nigeria",3.5,502,not found,3
61,266,Ibadan Airport,Ibadan,Nigeria,IBA,DNIB,7.362460136413574,3.97832989692688,725,N,Africa/Lagos,airport,OurAirports,Ibadan Airport,ChIJ96d-E0XtORARreNWPxl1E8w,"Ibadan Airport, Ibadan, Nigeria",3.5,277,http://www.faan.gov.ng/ibadan-airport/,1
62,267,Ilorin International Airport,Ilorin,Nigeria,ILR,DNIL,8.440210342407228,4.493919849395752,1126,N,Africa/Lagos,airport,OurAirports,A1,ChIJhddYuvdSNhARIzxT4NwXhjI,"A1, Ilorin, Nigeria",3.8,452,http://www.faan.gov.ng/,1
63,268,Yakubu Gowon Airport,Jos,Nigeria,JOS,DNJO,9.639829635620117,8.869050025939941,4232,N,Africa/Lagos,airport,OurAirports,Nigeria,ChIJEXjdd0-YUxARKDb1P7CPyeo,Nigeria,3.4,152,not found,1
64,270,Mallam Aminu International Airport,Kano,Nigeria,KAN,DNKN,12.0476,8.52462,1562,N,Africa/Lagos,airport,OurAirports,Mallam Aminu Kano International Airport,ChIJMZAOUiSHrhER2pwTcLZYatc,"Mallam Aminu Kano International Airport, Sani Abacha Way, Kano, Nigeria",4.0,147,http://www.faan.gov.ng/mallam-aminu-kano-international-airport/,7
65,273,Murtala Muhammed International Airport,Lagos,Nigeria,LOS,DNMM,6.5773701667785645,3.321160078048706,135,N,Africa/Lagos,airport,OurAirports,Murtala Muhammed International Airport,ChIJhRTXUeeROxARmk_Rp3PtIvI,"Murtala Muhammed International Airport, Lagos, Nigeria",3.3,1172,http://www.faan.gov.ng/mmia/,60
66,277,Yola Airport,Yola,Nigeria,YOL,DNYO,9.257550239562988,12.430399894714355,599,N,Africa/Lagos,airport,OurAirports,Yola Airport,ChIJb2utFrYU_BARfgdRXWrRPxA,"Yola Airport, A8 Jimeta, 640211, Yola, Nigeria",3.7,80,http://www.faan.gov.ng/yola-airport/,1
67,280,Diori Hamani International Airport,Niamey,Niger,NIM,DRRN,13.4815,2.18361,732,N,Africa/Niamey,airport,OurAirports,Diori Hamani International Airport,ChIJXVdehQAL0BER_kD10D7PzNY,"Diori Hamani International Airport, Niamey, Niger",3.9,252,http://www.aeroport-niamey.com/,17
68,286,Monastir Habib Bourguiba International Airport,Monastir,Tunisia,MIR,DTMB,35.75809860229492,10.75469970703125,9,E,Africa/Tunis,airport,OurAirports,Monastir Habib Bourguiba International Airport,ChIJhwT_AuAMAhMRW06Sb01TKsI,"Monastir Habib Bourguiba International Airport, Tunisia",3.6,262,http://www.habibbourguibaairport.com/,15
69,287,Tunis Carthage International Airport,Tunis,Tunisia,TUN,DTTA,36.85100173950195,10.22719955444336,22,E,Africa/Tunis,airport,OurAirports,Tunis-Carthage International Airport,ChIJu_HX4dLK4hIRm4G1ANGIJJA,"Tunis-Carthage International Airport, 1080 Tunis Cedex، Tunis, Tunisia",3.3,1172,http://www.aeroport-de-tunis-carthage.com/,87
70,293,Djerba Zarzis International Airport,Djerba,Tunisia,DJE,DTTJ,33.875,10.775500297546387,19,E,Africa/Tunis,airport,OurAirports,Djerba-Zarzis International Airport,ChIJdeomfcGvqhMRtH-yTBgV9no,"Djerba-Zarzis International Airport, Djerba, Mellita, Tunisia",3.9,295,http://www.aeroport-de-djerba-zarzis.com/,37
71,295,Sfax Thyna International Airport,Sfax,Tunisia,SFA,DTTX,34.71799850463867,10.690999984741213,85,E,Africa/Tunis,airport,OurAirports,Sfax-Thyna Airport Tunisia,ChIJrUGkg2srABMRoKtaMhhCVGo,"Sfax-Thyna Airport Tunisia, Thyna B.P.1119، Route de l'aéroport, Sfax 3018, Tunisia",3.8,136,http://www.aeroport-de-sfax-thyna.com/,10
72,298,Lomé-Tokoin Airport,Lome,Togo,LFW,DXXX,6.165609836578369,1.2545100450515747,72,N,Africa/Lome,airport,OurAirports,Lomé-Tokoin Airport,ChIJMxOWBsnjIxARreykKTPoASI,"Lomé-Tokoin Airport, Lomé, Togo",3.9,306,https://www.aeroportdelome.com/,20
73,299,Antwerp International Airport (Deurne),Antwerp,Belgium,ANR,EBAW,51.189399719200004,4.46027994156,39,E,Europe/Brussels,airport,OurAirports,Antwerp International Airport,ChIJoRVJ_Vf3w0cRmcqeCv33EYQ,"Antwerp International Airport (ANR), Luchthavenlei, 2100 Antwerpen, Belgium",4.0,157,http://www.antwerp-airport.be/,2
74,302,Brussels Airport,Brussels,Belgium,BRU,EBBR,50.9014015198,4.48443984985,184,E,Europe/Brussels,airport,OurAirports,Brussels Airport,ChIJ7XVSxL7dw0cR5CV_Dj5OUSQ,"Brussels Airport (BRU), Leopoldlaan, 1930 Zaventem, Belgium",3.7,4373,http://www.brusselsairport.be/,316
75,304,Brussels South Charleroi Airport,Charleroi,Belgium,CRL,EBCI,50.45920200000001,4.4538199999999994,614,E,Europe/Brussels,airport,OurAirports,Brussels South Charleroi Airport,ChIJ5dmW29AowkcR0mB242btosQ,"Brussels South Charleroi Airport (CRL), Rue des Frères Wright 8, 6041 Charleroi, Belgium",2.8,2425,http://www.charleroi-airport.com/,84
76,309,Liège Airport,Liege,Belgium,LGG,EBLG,50.63740158081055,5.443220138549805,659,E,Europe/Brussels,airport,OurAirports,Liège Airport,ChIJCeXJQCb8wEcRYw2sVrK9Xj0,"Liège Airport (LGG), Rue de l’Aéroport, 4460 Grâce-Hollogne, Belgium",3.8,158,http://www.liegeairport.com/,9
77,310,Ostend-Bruges International Airport,Ostend,Belgium,OST,EBOS,51.1988983154,2.8622200489,13,E,Europe/Brussels,airport,OurAirports,Oostende-Brugge International Airport,ChIJS0sqwWSv3EcR3VNKEu8Zql4,"Oostende-Brugge International Airport, Nieuwpoortsesteenweg 889, 8400 Oostende, Belgium",4.1,128,https://www.luchthaven-oostendebrugge.com/,1
78,337,Berlin-Schönefeld Airport,Berlin,Germany,SXF,EDDB,52.380001,13.5225,157,E,Europe/Berlin,airport,OurAirports,Berlin Schönefeld Airport,ChIJAQAAAFw4qEcRwKTgi0UZ_zQ,"Berlin Schönefeld Airport (SXF), Flughafen Schönefeld, 12521 Berlin, Germany",2.2,5963,https://www.berlin-airport.de/de/reisende-sxf/index.php,83
79,338,Dresden Airport,Dresden,Germany,DRS,EDDC,51.1328010559082,13.767200469970705,755,E,Europe/Berlin,airport,OurAirports,Dresden Airport,ChIJ1_6PJSXMCUcRvVdjTXOzxkY,"Dresden Airport (DRS), Flughafenstraße, 01109 Dresden, Germany",4.0,466,http://www.dresden-airport.de/,22
80,339,Erfurt Airport,Erfurt,Germany,ERF,EDDE,50.97980117797852,10.958100318908693,1036,E,Europe/Berlin,airport,OurAirports,Erfurt-Weimar Airport,ChIJwR8IwUBypEcRG5w0MSkzwp8,"Erfurt-Weimar Airport, Binderslebener Landstraße 100, 99092 Erfurt, Germany",3.9,172,http://www.flughafen-erfurt-weimar.de/,6
81,340,Frankfurt am Main Airport,Frankfurt,Germany,FRA,EDDF,50.033333,8.570556,364,E,Europe/Berlin,airport,OurAirports,Frankfurt Airport,ChIJeflCVHQLvUcRMfP4IU3YdIo,"Frankfurt Airport (FRA), 60547 Frankfurt am Main, Germany",3.7,11194,https://www.frankfurt-airport.com/de.html,497
82,341,Münster Osnabrück Airport,Munster,Germany,FMO,EDDG,52.134601593,7.68483018875,160,E,Europe/Berlin,airport,OurAirports,Münster Osnabrück International Airport,ChIJq7grkcK6uUcRuFsk6omc-sA,"Münster Osnabrück International Airport, Airportallee 1, 48268 Greven, Germany",4.3,364,http://www.fmo.de/,11
83,342,Hamburg Airport,Hamburg,Germany,HAM,EDDH,53.630401611328004,9.988229751586902,53,E,Europe/Berlin,airport,OurAirports,Hamburg Airport,ChIJV6bPHGSIsUcRJFgnHDMmRnM,"Hamburg Airport (HAM), Flughafenstr. 1-3, 22335 Hamburg, Germany",3.6,3116,https://www.hamburg-airport.de/de/,161
84,344,Cologne Bonn Airport,Cologne,Germany,CGN,EDDK,50.865898132299996,7.1427397728,302,E,Europe/Berlin,airport,OurAirports,Cologne Bonn Airport,ChIJ78boUtfevkcRyEtFyzYll2Q,"Cologne Bonn Airport (CGN), Kennedystraße, 51147 Köln, Germany",3.7,3041,https://www.koeln-bonn-airport.de/,134
85,345,Düsseldorf Airport,Duesseldorf,Germany,DUS,EDDL,51.289501,6.7667800000000025,147,E,Europe/Berlin,airport,OurAirports,Düsseldorf International Airport,ChIJUxLZNy7IuEcRVfTUlmn1Vls,"Düsseldorf International Airport (DUS), Flughafenstraße 105, 40474 Düsseldorf, Germany",3.5,4645,https://www.dus.com/de-de,285
86,346,Munich Airport,Munich,Germany,MUC,EDDM,48.353802,11.7861,1487,E,Europe/Berlin,airport,OurAirports,Munich International Airport,ChIJRW3aI1kTnkcRS89WOoV6xeM,"Munich International Airport (MUC), Nordallee 25, 85356 München, Germany",4.0,7223,https://www.munich-airport.de/,368
87,347,Nuremberg Airport,Nuernberg,Germany,NUE,EDDN,49.498699,11.078056,1046,E,Europe/Berlin,airport,OurAirports,Airport Nürnberg,ChIJJwbLdXj9oUcRL_qcuGv8ynI,"Airport Nürnberg, Flughafenstraße 100, 90411 Nürnberg, Germany",4.1,917,http://www.airport-nuernberg.de/,48
88,348,Leipzig/Halle Airport,Leipzig,Germany,LEJ,EDDP,51.423889,12.236388999999999,465,E,Europe/Berlin,airport,OurAirports,Leipzig/Halle Airport,ChIJZwkilQJfpkcRRfEptBP_Lik,"Leipzig/Halle Airport (LEJ), 04435 Schkeuditz, Germany",4.0,795,https://www.leipzig-halle-airport.de/,40
89,349,Saarbrücken Airport,Saarbruecken,Germany,SCN,EDDR,49.2145996094,7.10950994492,1058,E,Europe/Berlin,airport,OurAirports,Saarbrücken Airport,ChIJ5wlgKxW0lUcR7Ndp1tTGlAk,"Saarbrücken Airport, Balthasar-Goldstein-Straße, 66131 Saarbrücken, Germany",4.0,176,http://www.flughafen-saarbruecken.de/,9
90,350,Stuttgart Airport,Stuttgart,Germany,STR,EDDS,48.6898994446,9.22196006775,1276,E,Europe/Berlin,airport,OurAirports,Stuttgart Airport,ChIJtW_OpYzCmUcRkz1593jh6FE,"Stuttgart Airport (STR), Flughafenstraße 32, 70629 Stuttgart, Germany",3.8,2334,https://www.flughafen-stuttgart.de/?cl=de,137
91,351,Berlin-Tegel Airport,Berlin,Germany,TXL,EDDT,52.5597,13.2877,122,E,Europe/Berlin,airport,OurAirports,Berlin Tegel Airport,ChIJVVVVVflTqEcR6iq_Z319uWQ,"Berlin Tegel Airport (TXL), Zufahrt zum Flughafen Tegel, 13405 Berlin, Germany",2.5,7033,https://www.berlin-airport.de/de/reisende-txl/index.php,208
92,352,Hannover Airport,Hannover,Germany,HAJ,EDDV,52.461101532,9.68507957458,183,E,Europe/Berlin,airport,OurAirports,Hannover Airport,ChIJsVaQUBdysEcR5dBzTIRLQ-Q,"Hannover Airport (HAJ), Flughafenstraße 4, 30855 Langenhagen, Germany",3.7,1097,https://www.hannover-airport.de/informationen-fuer-fluggaeste-und-besucher/,76
93,353,Bremen Airport,Bremen,Germany,BRE,EDDW,53.0475006104,8.78666973114,14,E,Europe/Berlin,airport,OurAirports,Bremen Airport,ChIJPxtvB8PXsEcRg-_FP5mOCLA,"Bremen Airport (BRE), Flughafenallee 20, 28199 Bremen, Germany",3.9,647,http://www.airport-bremen.de/,50
94,355,Frankfurt-Hahn Airport,Hahn,Germany,HHN,EDFH,49.9487,7.263889999999999,1649,E,Europe/Berlin,airport,OurAirports,Frankfurt-Hahn Airport,ChIJX3W0JgQYvkcRWBxGlm6csj0,"Frankfurt-Hahn Airport (HHN), 55483 Hahn-Flughafen, Germany",3.4,1213,http://www.hahn-airport.de/,47
95,356,Mannheim-City Airport,Mannheim,Germany,MHG,EDFM,49.473057,8.514167,308,E,Europe/Berlin,airport,OurAirports,City Airport Mannheim,ChIJPTYSAtzOl0cR0nR6OeKay9A,"City Airport Mannheim, Seckenheimer Landstraße 172, 68163 Mannheim, Germany",4.6,59,http://www.flugplatz-mannheim.de/,1
96,364,Lübeck Blankensee Airport,Luebeck,Germany,LBC,EDHL,53.80540084840001,10.7192001343,53,E,Europe/Berlin,airport,OurAirports,Lübeck Airport,ChIJnZRFuF0IskcRPVEczvDDWig,"Lübeck Airport, Blankenseer Str. 101, 23562 Lübeck, Germany",3.5,67,http://www.flughafen-luebeck.de/,4
97,371,Paderborn Lippstadt Airport,Paderborn,Germany,PAD,EDLP,51.614101409899995,8.616319656369999,699,E,Europe/Berlin,airport,OurAirports,Paderborn Lippstadt Airport,ChIJ0e1_qHK2u0cROmmPOBtUvOY,"Paderborn Lippstadt Airport, Flughafenstraße 33, 33142 Büren, Germany",4.1,273,http://www.airport-pad.com/,11
98,373,Dortmund Airport,Dortmund,Germany,DTM,EDLW,51.518299102799986,7.61223983765,425,E,Europe/Berlin,airport,OurAirports,Dortmund Airport,ChIJNQXGhHcUuUcR3aJBj1trVpA,"Dortmund Airport, Flughafenring 2, 44319 Dortmund, Germany",3.4,1100,https://www.dortmund-airport.de/,33
99,382,Friedrichshafen Airport,Friedrichshafen,Germany,FDH,EDNY,47.671298980699994,9.511489868160002,1367,E,Europe/Berlin,airport,OurAirports,Bodensee Airport Friedrichshafen,ChIJ2xrm97IAm0cR52MUxAKRMKU,"Bodensee Airport Friedrichshafen, Am Flugpl. 64, 88046 Friedrichshafen, Germany",4.1,226,http://www.bodensee-airport.eu/,13
100,400,Kassel-Calden Airport,Kassel,Germany,KSF,EDVK,51.417273,9.384967,820,E,Europe/Berlin,airport,OurAirports,Flughafen Kassel,ChIJy6z_9xYWu0cRKjT2loyBX-w,"Flughafen Kassel, Fieseler-Storch-Straße 40, 34379 Calden, Germany",3.7,192,http://www.kassel-airport.aero/,2
101,410,Westerland Sylt Airport,Westerland,Germany,GWT,EDXW,54.9132003784,8.34047031403,51,E,Europe/Berlin,airport,OurAirports,Sylt Airport,ChIJq6qqqpretEcRyyU0A4BG_zU,"Sylt Airport, Flughafenstraße 1, 25980 Sylt, Germany",4.0,70,http://www.flughafen-sylt.de/,8
102,415,Lennart Meri Tallinn Airport,Tallinn-ulemiste International,Estonia,TLL,EETN,59.41329956049999,24.8327999115,131,E,Europe/Tallinn,airport,OurAirports,Tallinn Airport,ChIJpRi7D2HrkkYRp-pUJYtYw1A,"Tallinn Airport, Tartu maantee 101, 10112 Tallinn, Estonia",4.5,1183,https://www.tallinn-airport.ee/,38
103,421,Helsinki Vantaa Airport,Helsinki,Finland,HEL,EFHK,60.317199707031,24.963300704956,179,E,Europe/Helsinki,airport,OurAirports,Helsinki Airport,ChIJsaJij2X4jUYRlrMoLAHZ8Ps,"Helsinki Airport (HEL), 01531 Vantaa, Finland",4.2,2914,http://www.helsinki-vantaa.fi/,159
104,428,Ivalo Airport,Ivalo,Finland,IVL,EFIV,68.607299804688,27.405300140380998,481,E,Europe/Helsinki,airport,OurAirports,Ivalon lentoasema,ChIJsUXWRSQVzUURnQWJNixRa2A,"Ivalon lentoasema, Lentokentäntie 290, 99800 Enare, Finland",4.4,77,https://www.finavia.fi/fi/lentoasemat/ivalo,2
105,438,Kittilä Airport,Kittila,Finland,KTT,EFKT,67.700996398926,24.846799850464002,644,E,Europe/Helsinki,airport,OurAirports,Kittilä flygplats,ChIJcYUgHCOs00UR2s-xMrAis4k,"Kittilä flygplats, Levintie 259, 99100 Kittilä, Finland",4.1,139,https://www.finavia.fi/fi/lentoasemat/kittila,2
106,446,Oulu Airport,Oulu,Finland,OUL,EFOU,64.930099487305,25.354600906372,47,E,Europe/Helsinki,airport,OurAirports,Oulu Airport,ChIJEY5te6M0gEYRpk_7789M1zs,"Oulu Airport (OUL), Lentokentäntie 720, 90410 Oulu, Finland",4.3,120,http://www.finavia.fi/fi/oulu/,4
107,453,Rovaniemi Airport,Rovaniemi,Finland,RVN,EFRO,66.564796447754,25.830400466919,642,E,Europe/Helsinki,airport,OurAirports,Rovaniemi Airport,ChIJhUAxhsNNK0QR9FPRUPB9a68,"Rovaniemi Airport (RVN), 96101 Rovaniemi, Finland",4.1,149,http://www.finavia.fi/lentoasemat/lentoasema_rovaniemi,2
108,458,Tampere-Pirkkala Airport,Tampere,Finland,TMP,EFTP,61.414100646973,23.604400634766,390,E,Europe/Helsinki,airport,OurAirports,Tampere–Pirkkala Airport,ChIJ_a_zPivfjkYRQkoqKPbXnpw,"Tampere–Pirkkala Airport (TMP), Tornikaari 50, 33960 Birkala, Finland",3.8,76,http://www.finavia.fi/fi/tampere-pirkkala/,12
109,460,Turku Airport,Turku,Finland,TKU,EFTU,60.514099121094,22.262800216675,161,E,Europe/Helsinki,airport,OurAirports,Turku Airport,ChIJH9VysOt1jEYRkNJo34xbeII,"Turku Airport, Lentoasemantie 150, 20360 Turku, Finland",3.8,144,http://www.finavia.fi/lentoasemat/lentoasema_turku,8
110,465,Belfast International Airport,Belfast,United Kingdom,BFS,EGAA,54.6575012207,-6.21582984924,268,E,Europe/London,airport,OurAirports,Belfast International Airport (BFS),ChIJnRmAR86qYUgRFWtHPHalIeU,"Belfast International Airport (BFS), Airport Rd, Belfast BT29 4AB, UK",2.8,715,http://www.belfastairport.com/,36
111,467,George Best Belfast City Airport,Belfast,United Kingdom,BHD,EGAC,54.61809921264648,-5.872499942779541,15,E,Europe/London,airport,OurAirports,George Best Belfast City Airport,ChIJL4jm3PQJYUgRDBZMwIr2JMA,"George Best Belfast City Airport (BHD), Belfast BT3 9JH, UK",3.6,421,http://www.belfastcityairport.com/,21
112,478,Manchester Airport,Manchester,United Kingdom,MAN,EGCC,53.35369873046875,-2.2749500274658203,257,E,Europe/London,airport,OurAirports,Manchester-Boston Regional Airport,ChIJ3RcbiDZM4okRPIjkzsw21jc,"Manchester-Boston Regional Airport (MHT), 1 Airport Rd, Manchester, NH 03103, USA",4.4,271,http://www.flymanchester.com/,316
113,481,Newquay Cornwall Airport,Newquai,United Kingdom,NQY,EGHQ,50.44060134887695,-4.995409965515137,390,E,Europe/London,airport,OurAirports,Cornwall Airport Newquay,ChIJK1FkSLENa0gRWfyZ1P68MVQ,"Cornwall Airport Newquay, St Mawgan, Newquay TR8 4RQ, UK",3.7,126,http://www.cornwallairportnewquay.com/,6
114,488,Cardiff International Airport,Cardiff,United Kingdom,CWL,EGFF,51.39670181274414,-3.343329906463623,220,E,Europe/London,airport,OurAirports,Cardiff Airport,ChIJIdd3q9sObkgRAvb9MEDEhV4,"Cardiff Airport (CWL), Cardiff, Rhoose, Barry CF62 3BD, UK",3.7,362,http://www.cardiff-airport.com/,32
115,490,Bristol Airport,Bristol,United Kingdom,BRS,EGGD,51.382702,-2.71909,622,E,Europe/London,airport,OurAirports,Bristol Airport,ChIJPybtqKiOcUgRxEkozN3aRNg,"Bristol Airport (BRS), Bristol BS48 3DY, UK",3.4,1251,http://www.bristolairport.co.uk/,100
116,491,Liverpool John Lennon Airport,Liverpool,United Kingdom,LPL,EGGP,53.33359909057617,-2.849720001220703,80,E,Europe/London,airport,OurAirports,Liverpool John Lennon Airport,ChIJZxe3oEDgekgRRpdkIF4Cy2I,"Liverpool John Lennon Airport, Speke Hall Ave, Speke, Liverpool L24 1YD, UK",3.4,1010,http://www.liverpoolairport.com/,58
117,492,London Luton Airport,London,United Kingdom,LTN,EGGW,51.87469863891602,-0.36833301186561584,526,E,Europe/London,airport,OurAirports,London Luton Airport,ChIJ1Qb35NA3dkgR0BrZSvPnBi4,"London Luton Airport (LTN), Airport Way, Luton LU2 9LY, UK",2.4,5103,https://www.london-luton.co.uk/,108
118,494,Bournemouth Airport,Bournemouth,United Kingdom,BOH,EGHH,50.77999877929688,-1.8424999713897705,38,E,Europe/London,airport,OurAirports,Bournemouth Airport,ChIJO4Llm4yYc0gREMierqEljK0,"Bournemouth Airport, Parley Ln, Christchurch BH23 6SE, UK",2.6,254,http://www.bournemouthairport.com/,19
119,495,Southampton Airport,Southampton,United Kingdom,SOU,EGHI,50.95029830932617,-1.3567999601364136,44,E,Europe/London,airport,OurAirports,Southampton Airport,ChIJKYXES7JzdEgRLFZ_ZYVX12I,"Southampton Airport (SOU), Southampton SO18 2NL, UK",3.6,297,http://www.southamptonairport.com/,33
120,498,Guernsey Airport,Guernsey,Guernsey,GCI,EGJB,49.43500137329102,-2.601969957351685,336,E,Europe/Guernsey,airport,OurAirports,Guernsey Airport,ChIJO1UjH19xDUgR0vqjjlyHOAQ,"Guernsey Airport (GCI), La Villiaze, Guernsey GY8 0DS, Guernsey",3.3,64,http://www.guernsey-airport.gov.gg/,18
121,499,Jersey Airport,Jersey,Jersey,JER,EGJJ,49.20790100097656,-2.1955099105834956,277,E,Europe/Jersey,airport,OurAirports,Jersey Airport,ChIJoTb2ruqtDUgRQDJOOMT1G5U,"Jersey Airport, St Peter, Jersey JE1 1BY, Jersey",4.0,105,http://www.jerseyairport.com/Pages/Default.aspx,38
122,502,London Gatwick Airport,London,United Kingdom,LGW,EGKK,51.148102,-0.190278,202,E,Europe/London,airport,OurAirports,Gatwick Airport,ChIJGzkffd7vdUgR_3OJAb-k3Vk,"Gatwick Airport (LGW), Horley, Gatwick RH6 0NP, UK",3.6,4888,https://www.gatwickairport.com/,356
123,503,London City Airport,London,United Kingdom,LCY,EGLC,51.505299,0.055277999999999994,19,E,Europe/London,airport,OurAirports,London City Airport,ChIJhza7Doio2EcRSxpLpqDodAc,"London City Airport (LCY), Hartmann Rd, Royal Docks, London E16 2PX, UK",4.0,1644,https://www.londoncityairport.com/,62
124,507,London Heathrow Airport,London,United Kingdom,LHR,EGLL,51.4706,-0.461941,83,E,Europe/London,airport,OurAirports,Heathrow Airport,ChIJ6W3FzTRydkgRZ0H2Q1VT548,"Heathrow Airport (LHR), Longford TW6, UK",3.8,9222,https://www.heathrow.com/,527
125,508,Southend Airport,Southend,United Kingdom,SEN,EGMC,51.5713996887207,0.6955559849739075,49,E,Europe/London,airport,OurAirports,London Southend Airport,ChIJ2f3y2hbZ2EcROw-4AqftcYY,"London Southend Airport, Southend-on-Sea SS2 6YF, UK",3.3,545,http://www.southendairport.com/,14
126,514,Blackpool International Airport,Blackpool,United Kingdom,BLK,EGNH,53.77170181274414,-3.0286099910736084,34,E,Europe/London,airport,OurAirports,Blackpool Airport,ChIJX3sYPk5Be0gRIZe_CBSsqos,"Blackpool Airport, Squires Gate Ln, Blackpool FY4 2QY, UK",3.9,58,http://blackpoolairport.com/,9
127,515,Humberside Airport,Humberside,United Kingdom,HUY,EGNJ,53.57440185546875,-0.350832998752594,121,E,Europe/London,airport,OurAirports,Humberside Airport,ChIJ1dz3Cs5S2UcRdGpyD3BfhfI,"Humberside Airport (HUY) DN39 6YH, UK",3.5,70,http://www.humbersideairport.com/,5
128,517,Leeds Bradford Airport,Leeds,United Kingdom,LBA,EGNM,53.86589813232422,-1.6605700254440308,681,E,Europe/London,airport,OurAirports,Leeds Bradford Airport,ChIJc4ZWMnZYeUgR8B0rRsU2pwk,"Leeds Bradford Airport (LBA), Whitehouse Ln, Yeadon, Leeds LS19 7TU, UK",2.9,972,https://www.leedsbradfordairport.co.uk/,80
129,520,Isle of Man Airport,Isle Of Man,Isle of Man,IOM,EGNS,54.08330154418945,-4.623889923095703,52,E,Europe/Isle_of_Man,airport,OurAirports,Isle of Man Airport,ChIJ_3IGggCMY0gRo2V-T-syL6c,"Isle of Man Airport, 56 A5, Isle of Man",3.9,110,http://www.iom-airport.com/,11
130,522,Durham Tees Valley Airport,Teesside,United Kingdom,MME,EGNV,54.50920104980469,-1.4294099807739258,120,E,Europe/London,airport,OurAirports,Teesside International Airport,ChIJEUz73tWWfkgRY1OJv2KpVIs,"Teesside International Airport, Darlington DL2 1LU, UK",3.0,98,http://www.durhamteesvalleyairport.com/,3
131,523,East Midlands Airport,East Midlands,United Kingdom,EMA,EGNX,52.8311004639,-1.32806003094,306,E,Europe/London,airport,OurAirports,East Midlands Airport,ChIJUw57-LLleUgRhd_jTMtyKQM,"East Midlands Airport (EMA), Castle Donington, Derby DE74 2SA, UK",3.1,861,http://www.eastmidlandsairport.com/,95
132,532,Aberdeen Dyce Airport,Aberdeen,United Kingdom,ABZ,EGPD,57.20190048217773,-2.1977798938751216,215,E,Europe/London,airport,OurAirports,Aberdeen Airport,ChIJ1VCNN7oThEgR20bzyHyyCRE,"Aberdeen Airport (ABZ), Dyce, Aberdeen AB21 7DU, UK",3.1,310,http://www.aberdeenairport.com/,41
133,534,Glasgow International Airport,Glasgow,United Kingdom,GLA,EGPF,55.8718986511,-4.43306016922,26,E,Europe/London,airport,OurAirports,Glasgow Airport,ChIJ3eARAblOiEgRCzOqGbWIqCQ,"Glasgow Airport (GLA), Paisley PA3 2SW, UK",3.8,1047,https://www.glasgowairport.com/,100
134,535,Edinburgh Airport,Edinburgh,United Kingdom,EDI,EGPH,55.95000076293945,-3.372499942779541,135,E,Europe/London,airport,OurAirports,Edinburgh Airport,ChIJfQHjkw7Fh0gRm9WxkiUKUxk,"Edinburgh Airport (EDI), Edinburgh EH12 9DN, UK",3.3,2220,http://www.edinburghairport.com/,119
135,537,Glasgow Prestwick Airport,Prestwick,United Kingdom,PIK,EGPK,55.5093994140625,-4.586669921875,65,E,Europe/London,airport,OurAirports,Glasgow Prestwick Airport,ChIJpYlmAY_TiUgR3JMSMBRjsRg,"Glasgow Prestwick Airport, 107 Glasgow Prestwick Intnl Airport, Prestwick KA9 2PL, UK",3.6,149,http://www.glasgowprestwick.com/,21
136,547,Norwich International Airport,Norwich,United Kingdom,NWI,EGSH,52.675800323500006,1.28278005123,117,E,Europe/London,airport,OurAirports,Norwich International Airport,ChIJV9Dr3I3h2UcRkJ8gtHfvQGs,"Norwich International Airport (NWI), Norwich Airport Ltd, Norwich NR6 6JA, UK",3.1,199,http://www.norwichinternational.co.uk/,10
137,548,London Stansted Airport,London,United Kingdom,STN,EGSS,51.8849983215,0.23499999940400002,348,E,Europe/London,airport,OurAirports,London Stansted Airport,ChIJtxsqpbgEdkgRSCY1a5fQpDA,"London Stansted Airport (STN), Bassingbourn Rd, Stansted CM24 1QW, UK",2.6,6719,https://www.stanstedairport.com/,173
138,552,Exeter International Airport,Exeter,United Kingdom,EXT,EGTE,50.73440170288086,-3.4138898849487305,102,E,Europe/London,airport,OurAirports,Exeter Airport,ChIJsXG18RKibUgR0BznpSkeXmU,"Exeter Airport, Exeter EX5 2BD, UK",3.6,163,https://www.exeter-airport.co.uk/,25
139,580,Amsterdam Airport Schiphol,Amsterdam,Netherlands,AMS,EHAM,52.308601,4.76389,-11,E,Europe/Amsterdam,airport,OurAirports,Amsterdam Airport Schiphol,ChIJLRb94DThxUcRiPHO8YMV1cc,"Amsterdam Airport Schiphol (AMS), Evert van de Beekstraat 202, 1118 CP Schiphol, Netherlands",4.1,9340,http://www.schiphol.nl/,453
140,582,Maastricht Aachen Airport,Maastricht,Netherlands,MST,EHBK,50.911701,5.7701400000000005,375,E,Europe/Amsterdam,airport,OurAirports,Maastricht Aachen Airport,ChIJRbIRU3XBwEcRdGhp1vSmuM0,"Maastricht Aachen Airport, Vliegveldweg 90, 6199 AD Maastricht Airport, Netherlands",3.4,129,http://www.maa.nl/,10
141,585,Eindhoven Airport,Eindhoven,Netherlands,EIN,EHEH,51.4500999451,5.374529838559999,74,E,Europe/Amsterdam,airport,OurAirports,Eindhoven Airport,ChIJD8ehowvbxkcROiMX95VI9Y4,"Eindhoven Airport, Luchthavenweg 25, 5657 EA Eindhoven, Netherlands",3.5,1803,https://www.eindhovenairport.nl/,68
142,586,Eelde Airport,Groningen,Netherlands,GRQ,EHGG,53.1197013855,6.579440116880001,17,E,Europe/Amsterdam,airport,OurAirports,Groningen Airport Eelde,ChIJARyCGOAtyEcRqwUephW_e3Q,"Groningen Airport Eelde, Machlaan 14A, 9761 TK Eelde, Netherlands",4.1,115,http://www.groningenairport.nl/,6
143,591,Rotterdam The Hague Airport,Rotterdam,Netherlands,RTM,EHRD,51.956902,4.43722,-15,E,Europe/Amsterdam,airport,OurAirports,Rotterdam The Hague Airport,ChIJ83Z5piPLxUcRAh853jZ_S-E,"Rotterdam The Hague Airport (RTM), Rotterdam Airportplein 60, 3045 AP Rotterdam, Netherlands",3.8,580,http://www.rotterdamthehagueairport.nl/,33
144,596,Cork Airport,Cork,Ireland,ORK,EICK,51.84130096435547,-8.491109848022461,502,E,Europe/Dublin,airport,OurAirports,Cork Airport,ChIJBduFv6-PREgR1HFSYbIyjaQ,"Cork Airport (ORK), Kinsale Rd, Cork, Ireland",4.2,352,http://www.corkairport.com/,34
145,599,Dublin Airport,Dublin,Ireland,DUB,EIDW,53.421299,-6.27007,242,E,Europe/Dublin,airport,OurAirports,Dublin Airport,ChIJLxmTab4RZ0gRVfMlt7UbElU,"Dublin Airport (DUB), Dublin, Ireland",4.0,3847,https://www.dublinairport.com/,207
146,600,Ireland West Knock Airport,Connaught,Ireland,NOC,EIKN,53.9103012084961,-8.818490028381348,665,E,Europe/Dublin,airport,OurAirports,Ireland West Airport Knock,ChIJLTwnhBKtXkgR1R10yU407hI,"Ireland West Airport Knock, Co. Mayo, Ireland",3.2,214,http://www.irelandwestairport.com/,15
147,601,Kerry Airport,Kerry,Ireland,KIR,EIKY,52.18090057373047,-9.52377986907959,112,E,Europe/Dublin,airport,OurAirports,Kerry Airport,ChIJb1Cjy_owRUgRgEZLA_dvdJM,"Kerry Airport, Kerry Airport, Farranfore, Kerry, Ireland",4.1,90,http://kerryairport.ie/website/,6
148,607,Aarhus Airport,Aarhus,Denmark,AAR,EKAH,56.2999992371,10.619000434899998,82,E,Europe/Copenhagen,airport,OurAirports,Aarhus Lufthavn,ChIJ8TPu2-EtTEYRvYlcN32TooI,"Aarhus Lufthavn, Ny Lufthavnsvej 24, 8560 Kolind, Denmark",3.4,138,http://www.aar.dk/,8
149,608,Billund Airport,Billund,Denmark,BLL,EKBI,55.7402992249,9.15178012848,247,E,Europe/Copenhagen,airport,OurAirports,Billund Airport,ChIJ-0k34RpxS0YRYw9-NNSB9bg,"Billund Airport (BLL), Passagerterminalen 10, 7190 Billund, Denmark",4.0,754,https://www.bll.dk/da-dk,47
150,609,Copenhagen Kastrup Airport,Copenhagen,Denmark,CPH,EKCH,55.617900848389,12.656000137328999,17,E,Europe/Copenhagen,airport,OurAirports,"Copenhagen Airport (Kastrup), CPH Airport",ChIJcetmWWWrU0YRi1VtxUY2Z0E,"Copenhagen Airport (Kastrup), CPH Airport, 2770 Kastrup, Denmark",3.9,63,not found,229
151,625,Vagar Airport,Vagar,Faroe Islands,FAE,EKVG,62.0635986328125,-7.277219772338867,280,E,Atlantic/Faeroe,airport,OurAirports,Vágar Floghavn,ChIJoUe9Es2EvkgRH0JHT-R58Tg,"Vágar Floghavn, Faroe Islands",4.3,121,https://www.fae.fo/,4
152,628,Aalborg Airport,Aalborg,Denmark,AAL,EKYT,57.092758913800004,9.84924316406,10,E,Europe/Copenhagen,airport,OurAirports,Aalborg Airport,ChIJQUP7fAsuSUYRhGRmZEEhv3k,"Aalborg Airport, Ny Lufthavnsvej 100, 9400 Nørresundby, Denmark",4.4,246,http://www.aal.dk/,20
153,630,Ålesund Airport,Alesund,Norway,AES,ENAL,62.5625,6.119699954986572,69,E,Europe/Oslo,airport,OurAirports,"Ålesund Airport, Vigra",ChIJ7y9ihdvWFkYReRR0z9nSNYM,"Ålesund Airport, Vigra, Flyplassvegen 27, 6040 Vigra, Norway",3.9,112,https://avinor.no/flyplass/alesund/kontakt-oss/#!kontakt-flyplassen-3666,13
154,632,Alta Airport,Alta,Norway,ALF,ENAT,69.976097106934,23.371700286865,9,E,Europe/Oslo,airport,OurAirports,Alta Airport,ChIJ3V9ilZ8Wz0URlTCJR0x4pc0,"Alta Airport, Altagårdskogen 32, 9515 Alta, Norway",4.0,78,https://avinor.no/en/airport/alta-airport/,10
155,635,Bodø Airport,Bodo,Norway,BOO,ENBO,67.26920318603516,14.365300178527832,42,E,Europe/Oslo,airport,OurAirports,Bodø Airport,ChIJtZFKalEQ30UR6m6JbyJV32M,"Bodø Airport (BOO), Olav V gate, 8004 Bodø, Norway",4.0,140,https://avinor.no/flyplass/bodo/,18
156,636,Bergen Airport Flesland,Bergen,Norway,BGO,ENBR,60.29339981,5.218140125,170,E,Europe/Oslo,airport,OurAirports,Bergen Airport,ChIJzZm963fwPEYRkIe_P4LGDgA,"Bergen Airport (BGO), Flyplassvegen 555, 5258 Bergen, Norway",3.8,648,https://avinor.no/flyplass/bergen/,69
157,638,Kristiansand Airport,Kristiansand,Norway,KRS,ENCN,58.204201,8.08537,57,E,Europe/Oslo,airport,OurAirports,Kristiansand Airport,ChIJL7afgFQBOEYRx6EdmwepCqw,"Kristiansand Airport (KRS), 4657 Kjevik, Norway",3.5,107,https://beta.avinor.no/flyplass/kristiansand,11
158,641,"Harstad/Narvik Airport, Evenes",Harstad/Narvik,Norway,EVE,ENEV,68.491302490234,16.678100585938,84,E,Europe/Oslo,airport,OurAirports,"Harstad/Narvik Airport, Evenes",ChIJ_61tJRyL20URiprEkxhgkDA,"Harstad/Narvik Airport, Evenes, 8536, Norway",3.9,86,https://avinor.no/flyplass/harstad/,9
159,644,Oslo Lufthavn,Oslo,Norway,OSL,ENGM,60.121,11.0502,681,E,Europe/Oslo,airport,OurAirports,Oslo Airport,ChIJvxyKJIuDQUYRglvrp9StoMw,"Oslo Airport (OSL), Edvard Munchs veg, 2061 Gardermoen, Norway",4.0,2583,https://avinor.no/flyplass/oslo/,180
160,645,Haugesund Airport,Haugesund,Norway,HAU,ENHD,59.34529876709001,5.2083601951599015,86,E,Europe/Oslo,airport,OurAirports,"Haugesund Airport, Karmøy",ChIJKxe2LpYKO0YRJiUNpGz6bxU,"Haugesund Airport, Karmøy, Helganesvegen 350, 4262 Avaldsnes, Norway",3.9,71,https://flyhau.no/no,12
161,651,Molde Airport,Molde,Norway,MOL,ENML,62.744701385498,7.262499809265098,10,E,Europe/Oslo,airport,OurAirports,Molde Airport,ChIJabbpCQ5WEUYRCruk396RVs0,"Molde Airport, Årø, 6421 Molde, Norway",3.8,54,https://avinor.no/flyplass/molde/,7
162,655,Ørland Airport,Orland,Norway,OLA,ENOL,63.69889831542969,9.604000091552734,28,E,Europe/Oslo,airport,OurAirports,Orlando International Airport,ChIJ85K0xidj54gRbeERlDa5Sq0,"Orlando International Airport (MCO), 1 Jeff Fuqua Blvd, Orlando, FL 32827, USA",3.6,5820,http://www.orlandoairports.net/,1
163,657,"Moss Airport, Rygge",Rygge,Norway,RYG,ENRY,59.37881700000001,10.785439,174,E,Europe/Oslo,airport,OurAirports,Moss Airport Rygge,ChIJFVqg06asRkYReBttsJOmCp0,"Moss Airport Rygge (RYG), Terminalveien 100, 1580 Rygge, Norway",3.8,177,not found,37
164,658,"Svalbard Airport, Longyear",Svalbard,Norway,LYR,ENSB,78.246101379395,15.465600013733,88,E,Arctic/Longyearbyen,airport,OurAirports,Svalbard Airport,ChIJsW9tK6RSnEURlya2A_vCWuQ,"Svalbard Airport, Longyearbyen, Svalbard and Jan Mayen",4.5,137,https://avinor.no/en/airport/svalbard-airport/,3
165,663,"Tromsø Airport,",Tromso,Norway,TOS,ENTC,69.68329620361328,18.91889953613281,31,E,Europe/Oslo,airport,OurAirports,Tromsø Airport,ChIJDz-OeCLExEURDuPz8jxzQFA,"Tromsø Airport (TOS), Flyplassvegen 31, 9016 Tromsø, Norway",3.9,280,https://avinor.no/flyplass/tromso/,26
166,664,"Sandefjord Airport, Torp",Sandefjord,Norway,TRF,ENTO,59.1866989136,10.258600235,286,E,Europe/Oslo,airport,OurAirports,TORP Sandefjord Airport,ChIJ115v2mbHRkYREmCjutWbt5s,"TORP Sandefjord Airport, Torpveien 130, 3241 Sandefjord, Norway",3.9,389,https://www.torp.no/,37
167,665,Trondheim Airport Værnes,Trondheim,Norway,TRD,ENVA,63.45780179999999,10.9239998,56,E,Europe/Oslo,airport,OurAirports,Trondheim Airport,ChIJ_ZxnV-MVbUYR_0Iqq9FyGLY,"Trondheim Airport (TRD), 7500 Stjørdal, Norway",4.0,282,https://avinor.no/flyplass/trondheim/,44
168,666,Stavanger Airport Sola,Stavanger,Norway,SVG,ENZV,58.876701354,5.637780189500001,29,E,Europe/Oslo,airport,OurAirports,Stavanger Airport,ChIJl3RJqYVJOkYRsQYvEpuRPA4,"Stavanger Airport (SVG), Flyplassvegen 230, 4055 Sola, Norway",4.1,309,https://avinor.no/flyplass/stavanger/,54
169,668,Gdańsk Lech Wałęsa Airport,Gdansk,Poland,GDN,EPGD,54.377601623535156,18.46619987487793,489,E,Europe/Warsaw,airport,OurAirports,Gdansk Lech Walesa Airport,ChIJ8eQhiTSe_UYR-JUf3ZO59IM,"Gdansk Lech Walesa Airport, ul. Juliusza Słowackiego 200, 80-298 Gdańsk, Poland",3.9,1596,http://www.airport.gdansk.pl/,51
170,669,Kraków John Paul II International Airport,Krakow,Poland,KRK,EPKK,50.077702,19.7848,791,E,Europe/Warsaw,airport,OurAirports,John Paul II Kraków-Balice International Airport,ChIJ0ejSiSdZFkcRKKE9klPF75M,"John Paul II Kraków-Balice International Airport (KRK), kapitana Mieczysława Medweckiego 1, 32-083 Balice, Poland",3.8,1881,http://www.krakowairport.pl/pl/,57
171,671,Katowice International Airport,Katowice,Poland,KTW,EPKT,50.4743,19.08,995,E,Europe/Warsaw,airport,OurAirports,Katowice Airport,ChIJLb2T-1sqF0cR3zFjIxMOr7w,"Katowice Airport, Wolności 90, 42-625 Ożarowice, Poland",3.0,2220,https://www.katowice-airport.com/,28
172,674,Poznań-Ławica Airport,Poznan,Poland,POZ,EPPO,52.4210014343,16.8262996674,308,E,Europe/Warsaw,airport,OurAirports,Poznań Airport,ChIJAfUrG0VEBEcRtEycalTUIso,"Poznań Airport, Bukowska 285, 60-189 Poznań, Poland",3.4,976,https://www.airport-poznan.com.pl/pl/,21
173,675,Rzeszów-Jasionka Airport,Rzeszow,Poland,RZE,EPRZ,50.1100006104,22.018999099699997,675,E,Europe/Warsaw,airport,OurAirports,Rzeszów-Jasionka Airport,ChIJAV--iojkPEcRzEh6PqhG6ac,"Rzeszów-Jasionka Airport, Jasionka 942, 36-002 Jasionka, Poland",4.4,456,http://www.rzeszowairport.pl/,11
174,676,"Szczecin-Goleniów ""Solidarność"" Airport",Szczecin,Poland,SZZ,EPSC,53.584701538100006,14.902199745199999,154,E,Europe/Warsaw,airport,OurAirports,Solidarity Szczecin-Goleniów Airport,ChIJ-9KhEmOZAEcR2vn-t5vUEWI,"Solidarity Szczecin-Goleniów Airport, Glewice 1a, 72-100 Goleniów, Poland",3.0,288,http://www.airport.com.pl/,7
175,679,Warsaw Chopin Airport,Warsaw,Poland,WAW,EPWA,52.1656990051,20.9671001434,362,E,Europe/Warsaw,airport,OurAirports,Warsaw Chopin Airport,ChIJ41zpQhwzGUcR0ehDaKL1xSI,"Warsaw Chopin Airport, Żwirki i Wigury 1, 00-001 Warszawa, Poland",3.8,5215,https://www.lotnisko-chopina.pl/,120
176,680,Copernicus Wrocław Airport,Wroclaw,Poland,WRO,EPWR,51.10269927979999,16.885799408,404,E,Europe/Warsaw,airport,OurAirports,Wrocław Nicolaus Copernicus Airport,ChIJv11892_AD0cRf27AnQ6i4CQ,"Wrocław Nicolaus Copernicus Airport, Graniczna 190, 54-530 Wrocław, Poland",4.2,1340,http://www.airport.wroclaw.pl/,33
177,687,Gothenburg-Landvetter Airport,Gothenborg,Sweden,GOT,ESGG,57.662799835205,12.279800415039,506,E,Europe/Stockholm,airport,OurAirports,Gothenburg-Landvetter Airport,ChIJa4Q3VAH6T0YRs4SWJS82YCQ,"Gothenburg-Landvetter Airport (GOT), 438 80 Landvetter, Sweden",4.1,900,https://www.swedavia.se/landvetter/,52
178,691,Gothenburg City Airport,Gothenborg,Sweden,GSE,ESGP,57.7747,11.8704,59,E,Europe/Stockholm,airport,OurAirports,Göteborg City Airport,ChIJvQ0uGk6KT0YRmxmx-827XhA,"Göteborg City Airport, Säve Flygplatsväg 34, 423 73 Säve, Sweden",3.5,59,https://www.saveflygplats.com/,21
179,699,Stockholm Skavsta Airport,Stockholm,Sweden,NYO,ESKN,58.78860092163086,16.912200927734375,140,E,Europe/Stockholm,airport,OurAirports,Stockholm Skavsta Airport,ChIJC6rra2UsX0YRSvLlqD3vAG4,"Stockholm Skavsta Airport, General Schybergs väg 22, 611 92 Nyköping, Sweden",3.4,714,https://www.skavsta.se/en/getting-to-and-from/directions-to-the-airport/,31
180,708,Malmö Sturup Airport,Malmoe,Sweden,MMX,ESMS,55.53630536399999,13.3761978149,236,E,Europe/Stockholm,airport,OurAirports,Malmö Airport,ChIJGxHr7jaDU0YRJxhKgZUwQks,"Malmö Airport (MMX), 230 32 Malmö-Sturup, Sweden",3.8,372,http://www.swedavia.se/malmo/,16
181,711,Växjö Kronoberg Airport,Vaxjo,Sweden,VXO,ESMX,56.929100036621094,14.727999687194824,610,E,Europe/Stockholm,airport,OurAirports,Smaland Airport,ChIJkyhHYBolV0YRn2s6b5aEVJk,"Smaland Airport, Flygplatsvägen 2, 352 50 Växjö, Sweden",3.7,68,http://www.smalandairport.se/,7
182,724,Kiruna Airport,Kiruna,Sweden,KRN,ESNQ,67.821998596191,20.336799621582,1508,E,Europe/Stockholm,airport,OurAirports,Kiruna Airport,ChIJDakDqEO30EURVMgqqEeg2PM,"Kiruna Airport, Flygfältsvägen, 981 41 Kiruna, Sweden",4.0,79,http://www.swedavia.se/kiruna/,3
183,726,Skellefteå Airport,Skelleftea,Sweden,SFT,ESNS,64.62480163574219,21.076900482177734,157,E,Europe/Stockholm,airport,OurAirports,Skellefteå Airport,ChIJ5RppY52RfkYRVapOX4vXyPM,"Skellefteå Airport, SKELLEFTEÅ FLYGPLATS 1, 931 92 Skellefteå, Sweden",4.0,329,http://skellefteaairport.se/,3
184,728,Umeå Airport,Umea,Sweden,UME,ESNU,63.791801452636996,20.282800674438,24,E,Europe/Stockholm,airport,OurAirports,Umeå Airport,ChIJm_vu0EtafEYRM3lV9xJaal0,"Umeå Airport, Flygplatsvägen 32, 904 22 Umeå, Sweden",3.7,101,https://www.swedavia.se/umea/,8
185,733,Stockholm Västerås Airport,Vasteras,Sweden,VST,ESOW,59.58940124511719,16.633600234985348,21,E,Europe/Stockholm,airport,OurAirports,Stockholm Västerås Airport,ChIJKUJNSZ9gXkYRVR1X8E2zjSY,"Stockholm Västerås Airport, 721 31 Västerås, Sweden",3.9,72,http://www.vst.nu/,3
186,734,Luleå Airport,Lulea,Sweden,LLA,ESPA,65.543800354004,22.121999740601,65,E,Europe/Stockholm,airport,OurAirports,Luleå Airport,ChIJR6N86Ntvf0YRMuqU0rSgL9w,"Luleå Airport (LLA), Flygstationsvägen 4, 972 54 Luleå, Sweden",4.0,115,http://www.swedavia.se/lulea,6
187,737,Stockholm-Arlanda Airport,Stockholm,Sweden,ARN,ESSA,59.651901245116996,17.918600082397,137,E,Europe/Stockholm,airport,OurAirports,Stockholm Arlanda Airport,ChIJ_YMtw2OdX0YRM1xOfqKV-FI,"Stockholm Arlanda Airport (ARN), 190 45 Stockholm-Arlanda, Sweden",3.8,2725,http://www.swedavia.se/arlanda/,219
188,742,Linköping City Airport,Linkoeping,Sweden,LPI,ESSL,58.406200408900006,15.6805000305,172,E,Europe/Stockholm,airport,OurAirports,Linköping City Airport,ChIJm9zYzdpuWUYRM49kIFDMNXY,"Linköping City Airport (LPI), Åkerbogatan 20, 582 54 Linköping, Sweden",4.2,65,http://www.linkopingcityairport.se/,2
189,772,Rostock-Laage Airport,Laage,Germany,RLG,ETNL,53.9182014465,12.2783002853,138,E,Europe/Berlin,airport,OurAirports,Rostock–Laage Airport,ChIJT3p-UUBCrEcRyhFahM8qx9E,"Rostock–Laage Airport, Flughafenstraße 1, 18299 Laage, Germany",3.8,124,http://www.rostock-airport.de/,5
190,794,Bram Fischer International Airport,Bloemfontein,South Africa,BFN,FABL,-29.092699050900002,26.302400589,4458,U,Africa/Johannesburg,airport,OurAirports,Bram Fischer International Airport,ChIJO8m7BRbOjx4RVpili1Yma8w,"Bram Fischer International Airport (BFN), Bloemfontein, 9300, South Africa",4.0,87,http://www.acsa.co.za/airports/bram-fischer/the-airport/about-bram-fischer,4
191,797,Cape Town International Airport,Cape Town,South Africa,CPT,FACT,-33.9648017883,18.6016998291,151,U,Africa/Johannesburg,airport,OurAirports,Cape Town International Airport,ChIJvQtA90JFzB0RkF7P43l1SEA,"Cape Town International Airport (CPT), Matroosfontein, Cape Town, 7490, South Africa",4.1,1516,http://www.airports.co.za/airports/cape-town-international/the-airport/about-the-airport,44
192,799,King Shaka International Airport,Durban,South Africa,DUR,FALE,-29.6144444444,31.119722222199997,295,U,Africa/Johannesburg,airport,OurAirports,King Shaka International Airport,ChIJ1SbGq14Q9x4RMz3B4Ai7Buk,"King Shaka International Airport, King Shaka Dr, La Mercy, 4407, South Africa",4.3,909,http://www.airports.co.za/airports/king-shaka,21
193,804,George Airport,George,South Africa,GRJ,FAGG,-34.0056,22.378902,648,U,Africa/Johannesburg,airport,OurAirports,St. George Regional Airport,ChIJn64O1yNFyoARLwRIphmIACY,"St. George Regional Airport (SGU), 4550 S Airport Pkwy, St. George, UT 84770, USA",4.2,80,http://www.flysgu.com/,5
194,813,OR Tambo International Airport,Johannesburg,South Africa,JNB,FAOR,-26.1392,28.246,5558,U,Africa/Johannesburg,airport,OurAirports,O.R. Tambo International Airport,ChIJwymiBTgUlR4R1iEoeUAcv7M,"O.R. Tambo International Airport (JNB), 1 Jones Rd, Kempton Park, Johannesburg, 1632, South Africa",4.1,3029,http://www.acsa.co.za/airports/or-tambo-international,159
195,815,Kimberley Airport,Kimberley,South Africa,KIM,FAKM,-28.802799224900003,24.765199661300002,3950,U,Africa/Johannesburg,airport,OurAirports,Kimberley Airport,ChIJq3Y1LwoZmx4Rz39RhaAQX-0,"Kimberley Airport, Comp Patterson Rd, Diskobolos, Kimberley, 8300, South Africa",3.4,52,http://www.airports.co.za/airports/kimberley/the-airport,2
196,820,Lanseria Airport,Johannesburg,South Africa,HLA,FALA,-25.9384994507,27.926099777199997,4517,U,Africa/Johannesburg,airport,OurAirports,Lanseria International Airport,ChIJtwk0enV4lR4RtgrkYzihLE0,"Lanseria International Airport, Airport Rd, Lanseria, 1748, South Africa",4.2,508,http://www.lanseria.co.za/,4
197,838,Port Elizabeth Airport,Port Elizabeth,South Africa,PLZ,FAPE,-33.984901428200004,25.61730003360001,226,U,Africa/Johannesburg,airport,OurAirports,Port Elizabeth International Airport,ChIJZ75vqIDNeh4RgJEmZ80J5I4,"Port Elizabeth International Airport (PLZ), Allister Miller Dr, Walmer, Port Elizabeth, 6070, South Africa",3.8,225,http://www.airports.co.za/airports/port-elizabeth,9
198,881,Sir Seretse Khama International Airport,Gaberone,Botswana,GBE,FBSK,-24.555201,25.9182,3299,U,Africa/Gaborone,airport,OurAirports,Sir Seretse Khama International Airport,ChIJqwZx4VxEux4RlV7s1-RM56Q,"Sir Seretse Khama International Airport (GBE), 9351 Letlametlo, Gaborone, Botswana",3.8,97,not found,9
199,883,Maya-Maya Airport,Brazzaville,Congo (Brazzaville),BZV,FCBB,-4.251699924468993,15.253000259399414,1048,N,Africa/Brazzaville,airport,OurAirports,Maya Maya International Airport,ChIJeUyuBc4yahoRFbKe6eDc3pI,"Maya Maya International Airport, Brazzaville, Republic of the Congo",4.0,203,http://www.brazzaville-aeroport.com/,25
200,886,Pointe Noire Airport,Pointe-noire,Congo (Brazzaville),PNR,FCPP,-4.816030025482178,11.88659954071045,55,N,Africa/Brazzaville,airport,OurAirports,Agostinho-Neto International Airport,ChIJgXC6gWKlYBoR8Xz4QIeorzE,"Agostinho-Neto International Airport, Ponton, Republic of the Congo",3.4,166,http://www.pointenoire-aeroport.com/,18
201,888,Bangui M'Poko International Airport,Bangui,Central African Republic,BGF,FEFF,4.39847993850708,18.51880073547364,1208,N,Africa/Bangui,airport,OurAirports,Bangui M'Poko International Airport total safeness,ChIJMWYMqFLpuBARkJtn9XI0Hqw,"Bangui M'Poko International Airport total safeness (BGF), Avenue de France, Bangui, Central African Republic",3.1,69,https://www.aeroport-bangui.com/bangui_international_airport.php,3
202,891,Malabo Airport,Malabo,Equatorial Guinea,SSG,FGSL,3.7552700042724614,8.708720207214355,76,N,Africa/Malabo,airport,OurAirports,Malabo International Airport,ChIJt_Rcr16cZhARRPyyO-I6TrM,"Malabo International Airport, Malabo, Equatorial Guinea",3.7,70,not found,14
203,893,Sir Seewoosagur Ramgoolam International Airport,Plaisance,Mauritius,MRU,FIMP,-20.430201,57.683601,186,N,Indian/Mauritius,airport,OurAirports,Sir Seewoosagur Ramgoolam International Airport,ChIJJbE7sOCKfCERz_XQNkcc8fE,"Sir Seewoosagur Ramgoolam International Airport, A10 Royal Road, Plaine Magnien, Mauritius",4.0,729,http://aml.mru.aero/,41
204,897,Douala International Airport,Douala,Cameroon,DLA,FKKD,4.0060801506,9.71947956085,33,N,Africa/Douala,airport,OurAirports,Douala International Airport,ChIJTw0M7FNtYRARpm_BnN4faEg,"Douala International Airport, 35 Ave des Cocotiers, Douala, Cameroon",3.1,852,http://www.adcsa.aero/index.php?id=68,51
205,898,Salak Airport,Maroua,Cameroon,MVR,FKKL,10.45139980316162,14.257399559020994,1390,N,Africa/Douala,airport,OurAirports,Salak Airport (MVR),ChIJX69zWEB4HRERcjfHOFA4Ly4,"Salak Airport (MVR), Cameroon",3.9,68,not found,1
206,901,Garoua International Airport,Garoua,Cameroon,GOU,FKKR,9.33588981628418,13.370100021362305,794,N,Africa/Douala,airport,OurAirports,Aéroport international de Garoua,ChIJuwpicX3I_BARZ_kCLt7QAy8,"Aéroport international de Garoua, Garoua, Cameroon",3.6,119,http://www.adcsa.aero/,2
207,906,Livingstone Airport,Livingstone,Zambia,LVI,FLLI,-17.821800231933594,25.82270050048828,3302,U,Africa/Lusaka,airport,OurAirports,Harry Mwanga Nkumbula International Airport,ChIJkW3taJr5TxkR18Ph4kUAmWI,"Harry Mwanga Nkumbula International Airport (LVI), Livingstone, Zambia",3.6,64,http://www.nacl.co.zm/,7
208,907,Kenneth Kaunda International Airport Lusaka,Lusaka,Zambia,LUN,FLLS,-15.330800056500001,28.4526004791,3779,U,Africa/Lusaka,airport,OurAirports,Avis Rent a Car - Lusaka International Airport,ChIJx5rfzjeIQBkRt5Dbg8m36C0,"Avis Rent a Car - Lusaka International Airport (LUN), Lusaka International Airport Lusaka ZM, 10101, Zambia",3.5,192,http://www.avis.co.za/,34
209,910,Simon Mwansa Kapwepwe International Airport,Ndola,Zambia,NLA,FLND,-12.998100280762,28.66489982605,4167,U,Africa/Lusaka,airport,OurAirports,Ndola Airport,ChIJ9dhYErG0bBkRCC8pl6pX8fc,"Ndola Airport (NLA), Ndola, Zambia",3.6,77,not found,10
210,912,Prince Said Ibrahim International Airport,Moroni,Comoros,HAH,FMCH,-11.5337,43.2719,93,U,Indian/Comoro,airport,OurAirports,Prince Said Ibrahim International Airport (HAH),ChIJjdtCGkcEmRgR_O1HbZO7ems,"Prince Said Ibrahim International Airport (HAH), Comoros",3.4,71,http://www.aimpsi.com/,10
211,916,Roland Garros Airport,St.-denis,Reunion,RUN,FMEE,-20.88710021972656,55.51029968261719,66,U,Indian/Reunion,airport,OurAirports,Aéroport de La Réunion Roland Garros,ChIJgWdojjaAeCERykwQRKzjdc4,"Aéroport de La Réunion Roland Garros, 74 Avenue Roland Garros, Sainte-Marie 97438, Réunion",3.8,346,http://www.reunion.aeroport.fr/,19
212,917,Pierrefonds Airport,St.-pierre,Reunion,ZSE,FMEP,-21.320899963378906,55.42499923706055,59,U,Indian/Reunion,airport,OurAirports,Aéroport de Pierrefonds,ChIJ1QMzxEChgiERko2RwTD3x1w,"Aéroport de Pierrefonds, Chemin de L'Aérodrome 97451, Réunion",3.6,83,http://www.pierrefonds.aeroport.fr/,3
213,918,Ivato Airport,Antananarivo,Madagascar,TNR,FMMI,-18.7969,47.478802,4198,U,Indian/Antananarivo,airport,OurAirports,Ivato International Airport,ChIJrctxjDeC8CERN1DWLB10gsg,"Ivato International Airport, Antananarivo 101, Madagascar",2.9,217,not found,27
214,930,Fascene Airport,Nosy-be,Madagascar,NOS,FMNN,-13.3121004105,48.3148002625,36,U,Indian/Antananarivo,airport,OurAirports,Fascene Airport,ChIJM8r_CFS5EyIROBrMu_uyB4c,"Fascene Airport (NOS), Madagascar",2.4,55,not found,4
215,946,Cabinda Airport,Cabinda,Angola,CAB,FNCA,-5.59699010848999,12.188400268554688,66,N,Africa/Luanda,airport,OurAirports,Cabinda Airport,ChIJ51eHLTTTXRoRLt6ehERU-gI,"Cabinda Airport (CAB), Rua das Forças Armadas, Cabinda, Angola",3.8,57,http://www.angoxana.com/,3
216,951,Quatro de Fevereiro Airport,Luanda,Angola,LAD,FNLU,-8.858369999999997,13.2312,243,N,Africa/Luanda,airport,OurAirports,Luanda Quatro de Fevereiro International Airport,ChIJTwBP5YfzURoR8Q7Qxi5w-c4,"Luanda Quatro de Fevereiro International Airport, Luanda, Angola",3.4,324,http://angolaairport.net/,46
217,970,Libreville Leon M'ba International Airport,Libreville,Gabon,LBV,FOOL,0.45860001444799997,9.4122800827,39,N,Africa/Libreville,airport,OurAirports,Libreville International Airport,ChIJgdyHrtgkfxARQ4-CVxTELyk,"Libreville International Airport, Libreville, Gabon",3.7,229,http://www.libreville-aeroport.com/,24
218,974,Beira Airport,Beira,Mozambique,BEW,FQBR,-19.79640007019043,34.90760040283203,33,U,Africa/Maputo,airport,OurAirports,Beira International airport,ChIJa77rLghBKh8R22YxNRQxPZQ,"Beira International airport, Beira, Mozambique",3.8,326,http://www.avis.co.za/,7
219,979,Maputo Airport,Maputo,Mozambique,MPM,FQMA,-25.920799,32.572601,145,U,Africa/Maputo,airport,OurAirports,Maputo International Airport,ChIJJyzgaXiQ5h4RuuJnK1EaXfs,"Maputo International Airport, 3267 2631, Av. Acordos De Lusaka, Maputo, Mozambique",3.8,364,http://www.aeroporto-maputo.com/,17
220,984,Nampula Airport,Nampula,Mozambique,APL,FQNP,-15.105600357055664,39.28179931640625,1444,U,Africa/Maputo,airport,OurAirports,Nampula International Airport,ChIJPxpDpgU1xhgRVEDRuuxMl4w,"Nampula International Airport, Nampula, Mozambique",3.6,305,http://www.aeroportos.co.mz/,9
221,985,Pemba Airport,Pemba,Mozambique,POL,FQPB,-12.991762161254885,40.52401351928711,331,U,Africa/Maputo,airport,OurAirports,Aeroporto de Pemba,ChIJW4jOY7fJvxgRmacYFej0emE,"Aeroporto de Pemba, Mozambique",3.9,75,http://www.aeroportos.co.mz/,8
222,986,Quelimane Airport,Quelimane,Mozambique,UEL,FQQL,-17.855499267578125,36.86909866333008,36,U,Africa/Maputo,airport,OurAirports,Quelimane Airport,ChIJeXJkDR700hgRuNQfo98YpXo,"Quelimane Airport, Quelimane, Mozambique",3.6,143,http://www.aeroportos.co.mz/,3
223,988,Chingozi Airport,Tete,Mozambique,TET,FQTT,-16.104799270629886,33.64020156860352,525,U,Africa/Maputo,airport,OurAirports,Chingozi Airport,ChIJF8jNJJNIJhkRFpYaT5aLP2g,"Chingozi Airport, Tete, Mozambique",3.5,204,not found,7
224,990,Vilankulo Airport,Vilankulu,Mozambique,VNX,FQVL,-22.018400192260746,35.31330108642578,46,U,Africa/Maputo,airport,OurAirports,"Vilanculos Airport, VNX",ChIJKbrMAz9UJh8Rw8Zdvnjo1VE,"Vilanculos Airport, VNX, Vilanculos, Mozambique",3.9,94,http://www.aeroportos.co.mz/,4
225,994,Seychelles International Airport,Mahe,Seychelles,SEZ,FSIA,-4.67434,55.521801,10,U,Indian/Mahe,airport,OurAirports,Seychelles International Airport,ChIJsd09GsfVHyMRAuuAVRk9jHk,"Seychelles International Airport, Seychelles",4.0,397,https://www.seychellesairports.sc/,13
226,999,N'Djamena International Airport,N'djamena,Chad,NDJ,FTTJ,12.1337,15.034,968,N,Africa/Ndjamena,airport,OurAirports,N'Djamena International Airport,ChIJzXx9tQpiGRERcHfaKXQsvbI,"N'Djamena International Airport, N'Djamena, Chad",3.7,188,not found,9
227,1004,Victoria Falls International Airport,Victoria Falls,Zimbabwe,VFA,FVFA,-18.09589958190918,25.839000701904297,3490,U,Africa/Harare,airport,OurAirports,AVIS Rent a Car - Victoria Falls Airport,ChIJaZQ_ZlndTxkRYWDYnFLM-qY,"AVIS Rent a Car - Victoria Falls Airport (VFA), Victoria Falls Airport, Victoria Falls, Zimbabwe",3.7,94,http://www.avis.co.zw/,7
228,1005,Robert Gabriel Mugabe International Airport,Harare,Zimbabwe,HRE,FVHA,-17.931801,31.0928,4887,U,Africa/Harare,airport,OurAirports,Robert Gabriel Mugabe Airport,ChIJEWcwl1q9MRkRsDmKH1fDxt0,"Robert Gabriel Mugabe Airport (HRE), Harare, Zimbabwe",3.8,229,http://www.caaz.co.zw/,26
229,1016,Lilongwe International Airport,Lilongwe,Malawi,LLW,FWKI,-13.7894001007,33.78099823,4035,U,Africa/Blantyre,airport,OurAirports,Kamuzu International Airport,ChIJb0mXI09_HxkRV1Hss7mRjvU,"Kamuzu International Airport (LLW), Lumbadzi, Malawi",3.6,98,not found,12
230,1020,Ndjili International Airport,Kinshasa,Congo (Kinshasa),FIH,FZAA,-4.38575,15.4446,1027,N,Africa/Kinshasa,airport,OurAirports,"Ndjili International Airport, Kinshasa",ChIJv7jAQHtIahoRxdv-xDrdLP4,"Ndjili International Airport, Kinshasa, Boulevard Lumumba, Kinshasa, Democratic Republic of the Congo",3.2,60,https://www.kinshasa-airport.com/,27
231,1036,Goma International Airport,Goma,Congo (Kinshasa),GOM,FZNA,-1.670809984207153,29.23850059509277,5089,U,Africa/Kigali,airport,OurAirports,Goma Airport,ChIJSayv7P0F3RkRnEC_bKWLwmo,"Goma Airport (GOM), 267 virunga, Goma, Democratic Republic of the Congo",3.2,63,not found,3
232,1038,Lubumbashi International Airport,Lubumashi,Congo (Kinshasa),FBM,FZQA,-11.5913000107,27.5308990479,4295,U,Africa/Lubumbashi,airport,OurAirports,Lubumbashi International Airport,ChIJmSlRumg4chkRWiyoGhB4xY4,"Lubumbashi International Airport (FBM), Lubumbashi, Democratic Republic of the Congo",2.7,84,not found,10
233,1050,Banjul International Airport,Banjul,Gambia,BJL,GBYD,13.338000297546387,-16.65220069885254,95,N,Africa/Banjul,airport,OurAirports,Banjul International Airport,ChIJdfo9O3Kiwg4RnCrnFiNx4Lc,"Banjul International Airport, The Gambia",3.6,132,http://www.banjulairport.com/,13
234,1051,Fuerteventura Airport,Fuerteventura,Spain,FUE,GCFV,28.452699661254893,-13.863800048828125,85,E,Atlantic/Canary,airport,OurAirports,Airport De Fuerteventura,ChIJiXVgxDbGRwwRu2_SyqFyUCM,"Airport De Fuerteventura, Ctra, El Matorral, s/n, 35610 Puerto del Rosario, Las Palmas, Spain",4.0,994,http://www.aena.es/es/aeropuerto-fuerteventura/index.html,97
235,1052,Hierro Airport,Hierro,Spain,VDE,GCHI,27.814800262451172,-17.887100219726562,103,E,Atlantic/Canary,airport,OurAirports,Aeropuerto de El Hierro (VDE),ChIJxbBvGRxdawwRc8i2Mndxx3A,"Aeropuerto de El Hierro (VDE), Camino Cangrejo, s/n, 38910 Villa de Valverde, Santa Cruz de Tenerife, Spain",4.4,51,http://www.aena.es/es/aeropuerto-el-hierro/index.html,3
236,1053,La Palma Airport,Santa Cruz De La Palma,Spain,SPC,GCLA,28.626499,-17.7556,107,E,Atlantic/Canary,airport,OurAirports,La Palma Airport,ChIJhVqUN7DsawwRxpZNPm62VEs,"La Palma Airport, Camino la Bajita, s/n, 38739 Villa de Mazo, Santa Cruz de Tenerife, Spain",4.0,230,http://www.aena.es/es/aeropuerto-la-palma/index.html,8
237,1054,Gran Canaria Airport,Gran Canaria,Spain,LPA,GCLP,27.931900024414066,-15.38659954071045,78,E,Atlantic/Canary,airport,OurAirports,Gran Canaria Airport,ChIJHS1mw2aiQAwR1IWfFX7PS4I,"Gran Canaria Airport (LPA), Autopista GC-1, s/n, 35230, Las Palmas, Spain",4.1,1614,http://www.aena-aeropuertos.es/csee/Satellite/Aeropuerto-Gran-Canaria/es/,154
238,1055,Lanzarote Airport,Arrecife,Spain,ACE,GCRR,28.945498999999998,-13.6052,46,E,Atlantic/Canary,airport,OurAirports,Lanzarote Airport,ChIJWQQNP1cmRgwR_-9bJV-G3DY,"Lanzarote Airport (ACE), Las Palmas, Spain",3.8,913,http://www.aena-aeropuertos.es/es/aeropuerto-lanzarote/index.html,116
239,1056,Tenerife South Airport,Tenerife,Spain,TFS,GCTS,28.044500351,-16.5725002289,209,E,Atlantic/Canary,airport,OurAirports,Tenerife South Airport,ChIJtQc1pJmfagwRATBZlraFkIo,"Tenerife South Airport (TFS), 38610, Santa Cruz de Tenerife, Spain",3.7,1495,http://www.aena-aeropuertos.es/csee/Satellite/Aeropuerto-Tenerife-Sur/en/,159
240,1057,Tenerife Norte Airport,Tenerife,Spain,TFN,GCXO,28.4827003479,-16.341499328599998,2076,E,Atlantic/Canary,airport,OurAirports,Tenerife Norte Airport,ChIJbx3s_vTNQQwReLBTc3mRXBw,"Tenerife Norte Airport, 38297 San Cristóbal de La Laguna, Santa Cruz de Tenerife, Spain",3.9,922,http://www.aena.es/csee/Satellite/Aeropuerto-Tenerife-Norte/es/,32
241,1058,Melilla Airport,Melilla,Spain,MLN,GEML,35.279800415,-2.9562599658999997,156,E,Europe/Madrid,airport,OurAirports,Aeropuerto de Melilla (MLN),ChIJE0I6RugFdw0RJK0sRKftGTM,"Aeropuerto de Melilla (MLN), Ctra. de Yasinen, s/n, 52005 Melilla, Spain",3.5,101,http://www.aena.es/es/aeropuerto-melilla/index.html,5
242,1059,Lungi International Airport,Freetown,Sierra Leone,FNA,GFLL,8.616439999999999,-13.1955,84,N,Africa/Freetown,airport,OurAirports,Lungi,ChIJqdzJZfK_BA8RhwfX_SjYUGM,"Lungi, Sierra Leone",3.3,202,not found,22
243,1063,Roberts International Airport,Monrovia,Liberia,ROB,GLRB,6.23379,-10.3623,31,N,Africa/Monrovia,airport,OurAirports,Roberts International Airport,ChIJT3pU1PSzoA8RdMK4sjteF9k,"Roberts International Airport, Harbel, Liberia",3.1,92,https://www.monrovia-airport.com/,16
244,1064,Al Massira Airport,Agadir,Morocco,AGA,GMAD,30.32500076293945,-9.41306972503662,250,N,Africa/Casablanca,airport,OurAirports,Agadir Al-Massira International Airport,ChIJv7E726rFsw0RadZXN-8H0QM,"Agadir Al-Massira International Airport, BP 2000، Agadir 80000, Morocco",3.3,412,http://www.agadir-airport.com/,28
245,1066,Saïss Airport,Fes,Morocco,FEZ,GMFF,33.927299499499995,-4.977960109709999,1900,N,Africa/Casablanca,airport,OurAirports,Fes Sais International Airport,ChIJT38KqW2Lnw0RsJYdFUj4qQQ,"Fes Sais International Airport, Aéroport Fes Saïss Oulad Tayeb, Maroc، Fes 30000, Morocco",3.5,440,http://www.onda.ma/Nos-A%C3%A9roports/A%C3%A9roport-F%C3%A8s-Sa%C3%AFs,18
246,1072,Rabat-Salé Airport,Rabat,Morocco,RBA,GMME,34.051497999999995,-6.7515199999999975,276,N,Africa/Casablanca,airport,OurAirports,Rabat-Salé Airport,ChIJrw2l_v1Bpw0RaDyXVYV2CLY,"Rabat-Salé Airport, Salé, Morocco",3.9,436,http://www.onda.ma/,11
247,1074,Mohammed V International Airport,Casablanca,Morocco,CMN,GMMN,33.36750030517578,-7.589970111846924,656,N,Africa/Casablanca,airport,OurAirports,Casablanca Mohammed V International Airport,ChIJAfsjV5c6pg0RcxZzOd46pDY,"Casablanca Mohammed V International Airport, Route de Nouasseur, Casablanca, Morocco",2.9,1725,https://www.casablanca-airport.com/,125
248,1075,Menara Airport,Marrakech,Morocco,RAK,GMMX,31.6068992615,-8.036299705510002,1545,N,Africa/Casablanca,airport,OurAirports,Marrakesh Menara Airport,ChIJdcWwntDurw0R5589e1uB9cM,"Marrakesh Menara Airport (RAK), RAK Mhamid، 40000, Morocco",3.3,1630,https://www.a-maps.com/p/recherche.html?q=airport,73
249,1080,Ibn Batouta Airport,Tanger,Morocco,TNG,GMTT,35.726898193400004,-5.916890144349999,62,N,Africa/Casablanca,airport,OurAirports,Tangier Ibn Battuta Airport,ChIJd8_eU16ICw0RBYtN1xQA-Fs,"Tangier Ibn Battuta Airport, Aéroport Tanger-Ibn Batouta, Tanger, Morocco",3.6,359,not found,19
250,1081,Ziguinchor Airport,Ziguinchor,Senegal,ZIG,GOGG,12.5556,-16.281799,75,N,Africa/Dakar,airport,OurAirports,Ziguinchor Airport,ChIJB9lbNmyR5w4RR07jGIBWlXk,"Ziguinchor Airport (ZIG), Unnamed Road, Senegal",3.8,57,not found,2
251,1084,Léopold Sédar Senghor International Airport,Dakar,Senegal,DKR,GOOY,14.739700317382812,-17.49020004272461,85,N,Africa/Dakar,airport,OurAirports,Léopold Sédar Senghor International Airport,ChIJI0-Alq8SwQ4RXOYL-pL5OGw,"Léopold Sédar Senghor International Airport (DKR), Yoff, Dakar, Senegal",3.5,417,http://www.aeroport-dakar.com/,67
252,1094,Nouakchott–Oumtounsy International Airport,Nouakschott,Mauritania,NKC,GQNO,18.31,-15.969722199999998,9,N,Africa/Nouakchott,airport,OurAirports,Nouakchott International Airport - Oumtounsy,ChIJtdrYxh2wlw4RJ-A7tu8IUZI,"Nouakchott International Airport - Oumtounsy, Mauritania",4.2,282,http://www.sam.mr/,12
253,1097,Nouadhibou International Airport,Nouadhibou,Mauritania,NDB,GQPP,20.9330997467041,-17.030000686645508,24,N,Africa/Nouakchott,airport,OurAirports,Nouadhibou International Airport,ChIJaZeSmKGzoQ4RYtTvWWHeDms,"Nouadhibou International Airport, Nouadhibou, Mauritania",4.0,115,not found,4
254,1102,Amílcar Cabral International Airport,Amilcar Cabral,Cape Verde,SID,GVAC,16.7414,-22.9494,177,U,Atlantic/Cape_Verde,airport,OurAirports,Amílcar Cabral International Airport,ChIJ-WjO-PmgTAkRMAq3lSW12Q4,"Amílcar Cabral International Airport, Aeroporto Internacional Amílcar Cabral, Espargos 4110, Cape Verde",3.8,173,http://www.asa.cv/index.php?option=com_content&view=article&id=137&Itemid=58,20
255,1103,Rabil Airport,Boa Vista,Cape Verde,BVC,GVBA,16.136499404907227,-22.888900756835927,69,U,Atlantic/Cape_Verde,airport,OurAirports,International Airport Aristides Pereira,ChIJB1Rit4kkSwkRIczmUZiMepU,"International Airport Aristides Pereira, Rabil, Cape Verde",3.9,81,http://www.asa.cv/aeroportos/aeroporto-da-boavista/,12
256,1107,Addis Ababa Bole International Airport,Addis Ababa,Ethiopia,ADD,HAAB,8.97789001465,38.7993011475,7630,U,Africa/Addis_Ababa,airport,OurAirports,Bole International Airport,ChIJYUz_CeqESxYR1IYvnDyMglQ,"Bole International Airport, Addis Ababa, Ethiopia",3.1,1329,http://addisairport.com/,105
257,1120,Bujumbura International Airport,Bujumbura,Burundi,BJM,HBBA,-3.3240199089050293,29.318500518798828,2582,U,Africa/Bujumbura,airport,OurAirports,Aeroport International De Bujumbura,ChIJM7eNHRyDwRkRpdqE8hIhBaY,"Aeroport International De Bujumbura, R.N.5, Bujumbura, Burundi",3.7,67,not found,13
258,1128,Cairo International Airport,Cairo,Egypt,CAI,HECA,30.12190055847168,31.40559959411621,382,U,Africa/Cairo,airport,OurAirports,Cairo International Airport,ChIJQU-oLggXWBQRhhPiUSGvZeA,"Cairo International Airport (CAI), Oruba، Road، El Nozha, Cairo Governorate, Egypt",3.9,5975,http://www.cairo-airport.info/,151
259,1130,Hurghada International Airport,Hurghada,Egypt,HRG,HEGN,27.178300857543945,33.799400329589844,52,U,Africa/Cairo,airport,OurAirports,Hurghada International Airport,ChIJoXXqVaiAUhQRBnN-VEehdQk,"Hurghada International Airport, Hurghada Airport Toll Gate, Airport rd، Hurghada, Red Sea Governorate 84511, Egypt",3.1,1443,http://www.hurghada-airports.com/,40
260,1132,Luxor International Airport,Luxor,Egypt,LXR,HELX,25.671,32.7066,294,U,Africa/Cairo,airport,OurAirports,Luxor International Airport,ChIJOa8Nc9oUSRQRUJ3lcV9sa50,"Luxor International Airport (LXR), Monshaat Al Amari, Luxor, Luxor Governorate, Egypt",3.9,282,not found,10
261,1136,Aswan International Airport,Aswan,Egypt,ASW,HESN,23.964399337800003,32.8199996948,662,U,Africa/Cairo,airport,OurAirports,Aswan International Airport,ChIJL0vY13mJNhQRfkvKnozmFlM,"Aswan International Airport (ASW), Egypt",3.9,158,not found,4
262,1138,Eldoret International Airport,Eldoret,Kenya,EDL,HKEL,0.4044579863548279,35.23889923095703,6941,U,Africa/Nairobi,airport,OurAirports,Eldoret International Airport,ChIJJS3pd5v4gBcRAp4GhKD3plE,"Eldoret International Airport, Stendi Kisa - Yala Rd, Kenya",4.2,53,http://www.kaa.go.ke/,3
263,1140,Kisumu Airport,Kisumu,Kenya,KIS,HKKI,-0.0861390009522438,34.72890090942383,3734,U,Africa/Nairobi,airport,OurAirports,Kisumu International Airport,ChIJPSkMdaylKhgRtoQhrttrniI,"Kisumu International Airport (KIS), Kisumu - Busia Rd, Kisumu, Kenya",4.1,169,https://www.kaa.go.ke/airports/kisumu-international-airport,3
264,1145,Mombasa Moi International Airport,Mombasa,Kenya,MBA,HKMO,-4.034830093383788,39.594200134277344,200,U,Africa/Nairobi,airport,OurAirports,Moi International Airport,ChIJXasJwXByQBgRc1QW9JjO0oc,"Moi International Airport, Mombasa, Kenya",3.6,313,https://kaa.go.ke/airports/our-airports/moi-international-airport/,14
265,1147,Nairobi Wilson Airport,Nairobi,Kenya,WIL,HKNW,-1.3217200040817259,36.81480026245117,5536,U,Africa/Nairobi,airport,OurAirports,Wilson Airport,ChIJsecKN0YQLxgRk6kAkzxsn_8,"Wilson Airport (WIL), Nairobi, Kenya",3.9,213,https://kaa.go.ke/airports/our-airports/wilson-airport,19
266,1153,Kufra Airport,Kufra,Libya,AKF,HLKF,24.178699493408203,23.31399917602539,1367,N,Africa/Tripoli,airport,OurAirports,Libya,ChIJafdM5CJeCBQRlXOgGDV8xlo,"Al-Jawf, Libya",3.6,50,not found,3
267,1157,Tripoli International Airport,Tripoli,Libya,TIP,HLLT,32.6635017395,13.159000396700002,263,N,Africa/Tripoli,airport,OurAirports,Tripoli International Airport,ChIJF7H7lsbAqBMRsgcpPiIV2wU,"Tripoli International Airport, طريق المطار، Libya",3.8,230,not found,48
268,1165,Kigali International Airport,Kigali,Rwanda,KGL,HRYR,-1.9686299999999999,30.1395,4859,U,Africa/Kigali,airport,OurAirports,Kigali International Airport,ChIJ1XpB-Zan3BkR4v5rKXK660U,"Kigali International Airport, KN 5 Rd, Kigali, Rwanda",4.0,271,https://www.aeroport-kigali.com/,40
269,1173,Juba International Airport,Juba,South Sudan,JUB,HSSJ,4.87201023102,31.601100921599997,1513,U,Africa/Juba,airport,OurAirports,Juba International Airport,ChIJ47N47WuAEhcRhPJapUAnMtw,"Juba International Airport, Juba, South Sudan",3.2,147,not found,12
270,1175,Khartoum International Airport,Khartoum,Sudan,KRT,HSSS,15.589500427246096,32.55319976806641,1265,U,Africa/Khartoum,airport,OurAirports,Khartoum International Airport,ChIJ6S16KO-RjhYRWtB6I6P6Q3M,"Khartoum International Airport (KRT), Al Khurtum, Sudan",3.5,851,not found,41
271,1177,Julius Nyerere International Airport,Dar Es Salaam,Tanzania,DAR,HTDA,-6.87811,39.202599,182,U,Africa/Dar_es_Salaam,airport,OurAirports,Julius Nyerere International Airport,ChIJdy-xiiU2XBgR4rQIv_gunds,"Julius Nyerere International Airport, Julius K. Nyerere Rd, Dar es Salaam, Tanzania",3.7,1051,http://www.taa.go.tz/,35
272,1180,Kilimanjaro International Airport,Kilimanjaro,Tanzania,JRO,HTKJ,-3.42940998077,37.0745010376,2932,U,Africa/Dar_es_Salaam,airport,OurAirports,Kilimanjaro International Airport,ChIJd4PrkBhxNxgR0-onkKBYWZg,"Kilimanjaro International Airport, Kilimanjaro Airport Rd, Tanzania",3.7,337,http://www.kilimanjaroairport.co.tz,20
273,1182,Mtwara Airport,Mtwara,Tanzania,MYW,HTMT,-10.339099884033203,40.181800842285156,371,U,Africa/Dar_es_Salaam,airport,OurAirports,Uwanja wa ndege wa Mtwara (MYW),ChIJSSRTsTVajRgRnoKcBPIP8tg,"Uwanja wa ndege wa Mtwara (MYW), Mtwara, Tanzania",3.6,51,not found,1
274,1183,Mwanza Airport,Mwanza,Tanzania,MWZ,HTMW,-2.4444899559021,32.932701110839844,3763,U,Africa/Dar_es_Salaam,airport,OurAirports,Mwanza International Airport,ChIJG8SgwERwzhkRRvHTIts2BYw,"Mwanza International Airport, Mwanza, Tanzania",3.4,130,not found,6
275,1186,Abeid Amani Karume International Airport,Zanzibar,Tanzania,ZNZ,HTZA,-6.22202,39.224899,54,U,Africa/Dar_es_Salaam,airport,OurAirports,Zanzibar Airport,ChIJC-qCgcXbXBgREEehavOqTZk,"Abeid Amani Karume International Airport, Zanzibar Town, Zanzibar, Tanzania",2.7,530,http://www.zaa.go.tz/,11
276,1187,Entebbe International Airport,Entebbe,Uganda,EBB,HUEN,0.042386,32.443501,3782,U,Africa/Kampala,airport,OurAirports,Entebbe International Airport,ChIJr4G6N82GfRcRHz1D1jmhq50,"Entebbe International Airport, 14 Kitaasa Rd, Entebbe, Uganda",3.4,515,not found,34
277,1190,Tirana International Airport Mother Teresa,Tirana,Albania,TIA,LATI,41.4146995544,19.7206001282,126,E,Europe/Tirane,airport,OurAirports,Aeroporti Ndërkombëtar i Tiranës,ChIJf2DFEgctUBMR24ZSLfbBVFI,"Aeroporti Ndërkombëtar i Tiranës, Airport Rd Rinas Tirana AL, 1504, Albania",3.8,539,http://www.tirana-airport.com/,36
278,1191,Burgas Airport,Bourgas,Bulgaria,BOJ,LBBG,42.56959915161133,27.515199661254893,135,E,Europe/Sofia,airport,OurAirports,Airport Burgas,ChIJ0dXkUjKRpkAR5n9HayW97dg,"Airport Burgas, Burgas, Bulgaria",3.3,717,https://burgas-airport.bg/,12
279,1193,Plovdiv International Airport,Plovdiv,Bulgaria,PDV,LBPD,42.067799,24.8508,597,E,Europe/Sofia,airport,OurAirports,Plovdiv Airport,ChIJJ8U5uWPXrBQRJhSHFO_lxbA,"Plovdiv Airport (PDV), Летище Пловдив, 4009 Plovdiv, Bulgaria",3.8,104,http://www.plovdivairport.com/,2
280,1194,Sofia Airport,Sofia,Bulgaria,SOF,LBSF,42.696693420410156,23.411436080932607,1742,E,Europe/Sofia,airport,OurAirports,Sofia International Airport,ChIJz0pxkgSGqkARn9XIvv_gq5A,"Sofia International Airport (SOF), bul. ""Christopher Columbus"" 1, 1540 Sofia, Bulgaria",3.1,1635,https://www.sofia-airport.bg/,66
281,1196,Varna Airport,Varna,Bulgaria,VAR,LBWN,43.232101,27.8251,230,E,Europe/Sofia,airport,OurAirports,Airport - Varna,ChIJx7ymwVSrpUARS2_Qu1JnT-Y,"Airport - Varna, 9154, Bulgaria",3.7,347,http://www.varna-airport.bg/,9
282,1197,Larnaca International Airport,Larnaca,Cyprus,LCA,LCLK,34.875099182128906,33.62490081787109,8,E,Asia/Nicosia,airport,OurAirports,Larnaca International Airport,ChIJOfOB3yiD4BQR9gwm2_N091Q,"Larnaca International Airport (LCA), Larnaka, Cyprus",4.1,1380,http://www.hermesairports.com/,93
283,1198,Paphos International Airport,Paphos,Cyprus,PFO,LCPH,34.71799850463867,32.48569869995117,41,E,Asia/Nicosia,airport,OurAirports,Paphos International Airport,ChIJn8JqaIYD5xQRSHB-sn3PvL8,"Paphos International Airport, Πάφος, Cyprus",4.1,2157,http://www.hermesairports.com/,42
284,1200,Dubrovnik Airport,Dubrovnik,Croatia,DBV,LDDU,42.5614013671875,18.268199920654297,527,E,Europe/Zagreb,airport,OurAirports,Dubrovnik Airport,ChIJ6YIGjkMSTBMR2VHFkRMhOCU,"Dubrovnik Airport, Dobrota24, 20213, Čilipi, Croatia",3.1,589,http://www.airport-dubrovnik.hr/,60
285,1202,Osijek Airport,Osijek,Croatia,OSI,LDOS,45.46269989013672,18.810199737548828,290,E,Europe/Zagreb,airport,OurAirports,Osijek Airport,ChIJo9YjMMLmXEcRUcOkvVi5FP4,"Osijek Airport, Vukovarska ul. 67, 31207, Klisa, Croatia",3.9,56,http://www.osijek-airport.hr/,4
286,1203,Pula Airport,Pula,Croatia,PUY,LDPL,44.89350128173828,13.922200202941895,274,E,Europe/Zagreb,airport,OurAirports,Pula Airport,ChIJj59fN3stY0cRtMWfpN8kbEA,"Pula Airport, Ližnjan, Valtursko polje 210, 52100, Pula, Croatia",3.3,301,http://www.airport-pula.hr/,15
287,1205,Rijeka Airport,Rijeka,Croatia,RJK,LDRI,45.21689987182617,14.570300102233887,278,E,Europe/Zagreb,airport,OurAirports,Rijeka International Airport,ChIJaYLrtdxjY0cRmoQQavMU2zY,"Rijeka International Airport, Hamec1, 51513, Omišalj, Croatia",3.4,126,http://www.rijeka-airport.hr/,7
288,1206,Split Airport,Split,Croatia,SPU,LDSP,43.53889846801758,16.29800033569336,79,E,Europe/Zagreb,airport,OurAirports,Split Airport,ChIJ6bODCGJCNRMRhw8Uw1M1e3s,"Split Airport, Cesta Dr. Franje Tuđmana 1270, 21217, Kaštel Štafilić, Croatia",2.2,1628,http://www.split-airport.hr/,49
289,1208,Zagreb Airport,Zagreb,Croatia,ZAG,LDZA,45.74290084840001,16.0687999725,353,E,Europe/Zagreb,airport,OurAirports,Franjo Tuđman Airport Zagreb,ChIJKat_XOh-ZkcR9ojiKDwL9p4,"Franjo Tuđman Airport Zagreb (ZAG), Ul. Rudolfa Fizira 21, 10150, Zagreb, Croatia",3.5,1224,http://www.zagreb-airport.hr/,42
290,1209,Zadar Airport,Zadar,Croatia,ZAD,LDZD,44.108299,15.3467,289,E,Europe/Zagreb,airport,OurAirports,Zadar Airport,ChIJI1hFaZLlYUcRCqcjZJQZ4tg,"Zadar Airport, Ulica I/2A, 23222, Zemunik Donji, Croatia",3.5,283,http://www.zadar-airport.hr/,26
291,1212,Alicante International Airport,Alicante,Spain,ALC,LEAL,38.28219985961914,-0.5581560134887695,142,E,Europe/Madrid,airport,OurAirports,Alicante Airport,ChIJM9oQTcZKYg0R8b65Jd5Fstw,"Alicante Airport (ALC), 03195 L'Altet, Alicante, Spain",4.1,1872,http://www.aena.es/es/aeropuerto-alicante/index.html,157
292,1213,Almería International Airport,Almeria,Spain,LEI,LEAM,36.84389877319336,-2.3701000213623047,70,E,Europe/Madrid,airport,OurAirports,Almería Airport,ChIJ_WCGZVeZeg0RZV08CE0NGP8,"Almería Airport (LEI), Carretera Níjar, Km. 9, 04130 Almería, Spain",4.1,238,http://www.aena.es/es/aeropuerto-almeria/index.html,18
293,1214,Asturias Airport,Aviles,Spain,OVD,LEAS,43.5635986328125,-6.0346198081970215,416,E,Europe/Madrid,airport,OurAirports,Asturias Airport,ChIJGwo7PCyfNg0R2oUvT9GRvQc,"Asturias Airport (OVD), 33459 Santiago del Monte, Asturias, Spain",3.6,337,http://www.aena.es/es/aeropuerto-asturias/index.html,17
294,1216,Bilbao Airport,Bilbao,Spain,BIO,LEBB,43.30110168457031,-2.9106099605560303,138,E,Europe/Madrid,airport,OurAirports,Bilbao Airport,ChIJq0XsRmhFTg0RQnuBXbShtMg,"Bilbao Airport (BIO), 48180 Loiu, Bizkaia, Spain",3.9,1001,http://www.aena.es/es/aeropuerto-bilbao/index.html,65
295,1218,Barcelona International Airport,Barcelona,Spain,BCN,LEBL,41.2971,2.0784599999999998,12,E,Europe/Madrid,airport,OurAirports,Josep Tarradellas Barcelona-El Prat Airport,ChIJpY58hGSepBIR15tv-0LpK_M,"Josep Tarradellas Barcelona-El Prat Airport (BCN), 08820 El Prat de Llobregat, Barcelona, Spain",3.6,7752,http://www.aena.es/es/aeropuerto-barcelona/index.html,391
296,1219,Badajoz Airport,Badajoz,Spain,BJZ,LEBZ,38.891300201416016,-6.8213300704956055,609,E,Europe/Madrid,airport,OurAirports,Badajoz Airport,ChIJS8si--HtFg0RisTWj647wdE,"Badajoz Airport, Ctra. Badajoz-Balboa, s/n, 06195 Badajoz, Spain",3.9,67,http://www.aena.es/es/aeropuerto-badajoz/index.html,2
297,1220,A Coruña Airport,La Coruna,Spain,LCG,LECO,43.302101,-8.37726,326,E,Europe/Madrid,airport,OurAirports,A Coruña Airport,ChIJ0XCGbpJkLg0R3HwMPYq91xg,"A Coruña Airport (LCG), Rutis-Vilaboa, 15174 A Coruña, Spain",4.1,337,http://www.aena.es/es/aeropuerto-a-coruna/index.html,12
298,1222,Girona Airport,Gerona,Spain,GRO,LEGE,41.901000976999995,2.7605500221,468,E,Europe/Madrid,airport,OurAirports,Girona–Costa Brava Airport,ChIJ0xC1yO_fuhIR40oO1ILdw5s,"Girona–Costa Brava Airport, Carretera del aeropuerto, s/n, 17185 Vilobí d'Onyar, Girona, Spain",4.1,674,http://www.aena.es/es/aeropuerto-girona-costa-brava/index.html,49
299,1223,Federico Garcia Lorca Airport,Granada,Spain,GRX,LEGR,37.18870162963867,-3.777359962463379,1860,E,Europe/Madrid,airport,OurAirports,Federico García Lorca Granada Airport,ChIJVZouaa4Bcg0Rc1VJsULO08s,"Federico García Lorca Granada Airport, Ctra. de Málaga, 18329 Chauchina, Granada, Spain",3.9,276,http://www.aena.es/es/aeropuerto-federico-garcia-lorca-granada-jaen/index.html,9
300,1225,Ibiza Airport,Ibiza,Spain,IBZ,LEIB,38.8728981018,1.3731199502899998,24,E,Europe/Madrid,airport,OurAirports,Ibiza Airport,ChIJr7HMJfVFmRIRC1WADVXEsiY,"Ibiza Airport (IBZ), 07818 Sant Jordi de ses Salines, Illes Balears, Spain",3.7,868,http://www.aena.es/csee/Satellite/Aeropuerto-Ibiza/es/Page/1047658429070/,99
301,1226,Jerez Airport,Jerez,Spain,XRY,LEJR,36.74459838867188,-6.060110092163086,93,E,Europe/Madrid,airport,OurAirports,Jerez Airport,ChIJyXYiXmO_DQ0RD86AZtkACRQ,"Jerez Airport (XRY), Carretera N-IV, km. 628.5, 11401 Jerez de la Frontera, Cádiz, Spain",3.7,268,http://www.aena.es/es/aeropuerto-jerez/index.html,22
302,1227,San Javier Airport,Murcia,Spain,MJV,LELC,37.775001525878906,-0.8123890161514282,11,E,Europe/Madrid,airport,OurAirports,Murcia-San Javier Airport,ChIJzX2PsZURYw0RNUE4yw8ZksI,"Murcia-San Javier Airport, Carr. del Aeropuerto, s/n, 30720 Santiago de la Ribera, Murcia, Spain",4.0,292,http://www.aena.es/es/aeropuerto-region-murcia/index.html,20
303,1229,Adolfo Suárez Madrid–Barajas Airport,Madrid,Spain,MAD,LEMD,40.471926,-3.56264,1998,E,Europe/Madrid,airport,OurAirports,Madrid-Barajas Adolfo Suárez Airport,ChIJAQAAANAxQg0R786FD-old24,"Madrid-Barajas Adolfo Suárez Airport (MAD), Av de la Hispanidad, s/n, 28042 Madrid, Spain",3.9,6775,http://www.aena.es/es/aeropuerto-madrid-barajas/index.html,330
304,1230,Málaga Airport,Malaga,Spain,AGP,LEMG,36.67490005493164,-4.499110221862793,53,E,Europe/Madrid,airport,OurAirports,Malaga airport - Costa del Sol,ChIJpTC6dhj6cg0Rmj7eRy-ttVc,"Malaga airport - Costa del Sol (AGP), Av. del Comandante García Morato, s/n, 29004, Málaga, Spain",3.6,2236,http://www.aena.es/es/aeropuerto-malaga/index.html,206
305,1231,Menorca Airport,Menorca,Spain,MAH,LEMH,39.86259841918945,4.2186498641967765,302,E,Europe/Madrid,airport,OurAirports,Menorca Airport,ChIJq6qqqlqIlRIRi-tzLU38tGU,"Menorca Airport (MAH), Carretera de Sant Climent, s/n, 07712 Menorca, Illes Balears, Spain",4.1,463,http://www.aena.es/es/aeropuerto-menorca/index.html,34
306,1234,Pamplona Airport,Pamplona,Spain,PNA,LEPP,42.77000045776367,-1.6463299989700315,1504,E,Europe/Madrid,airport,OurAirports,Pamplona Airport,ChIJjeHih3aRUA0RywRDLKoPz8Q,"Pamplona Airport (PNA), Ctra. Zaragoza, Km. 5, 31110 Noáin, Navarra, Spain",3.6,93,http://www.aena.es/es/aeropuerto-pamplona/index.html,2
307,1236,Reus Air Base,Reus,Spain,REU,LERS,41.14739990234375,1.1671700477600098,233,E,Europe/Madrid,airport,OurAirports,Reus Airport,ChIJyQHOxBlXoRIRV2dtXhz4AKc,"Reus Airport, s/n, Autovía Tarragona, 43204 Reus, Tarragona, Spain",3.5,285,http://www.aena.es/es/aeropuerto-reus/index.html,19
308,1242,San Sebastian Airport,San Sebastian,Spain,EAS,LESO,43.35649871826172,-1.7906099557876587,16,E,Europe/Madrid,airport,OurAirports,San Sebastian Airport,ChIJkdAvQgAJUQ0R9oDHc_NC1UY,"San Sebastian Airport, Gabarrari Kalea, 5, 20280 Hondarribia, Gipuzkoa, Spain",3.6,163,http://www.aena.es/es/aeropuerto-san-sebastian/index.html,3
309,1243,Santiago de Compostela Airport,Santiago,Spain,SCQ,LEST,42.89630126953125,-8.415140151977539,1213,E,Europe/Madrid,airport,OurAirports,Santiago de Compostela Airport,ChIJnzwM82ZULg0R2B7_EJnCWZE,"Santiago de Compostela Airport, Lavacolla, S/N, 15820 Santiago de Compostela, A Coruña, Spain",3.9,589,http://www.aena.es/es/aeropuerto-santiago/index.html,36
310,1246,Valencia Airport,Valencia,Spain,VLC,LEVC,39.4893,-0.481625,240,E,Europe/Madrid,airport,OurAirports,Valencia Airport,ChIJZ1rMYJ9aYA0RggGxqv-3wkw,"Valencia Airport (VLC), Carretera del Aeropuerto, s/n, 46940 Manises, Valencia, Spain",3.7,1479,http://www.aena.es/es/aeropuerto-valencia/index.html,82
311,1247,Valladolid Airport,Valladolid,Spain,VLL,LEVD,41.7061004639,-4.85194015503,2776,E,Europe/Madrid,airport,OurAirports,Valladolid Airport,ChIJs9_U2QJxRw0RsbId6GeTqrQ,"Valladolid Airport, Ctra. Adanero-Gijón, s/n, 47620 Villanubla, Valladolid, Spain",3.6,94,http://www.aena.es/es/aeropuerto-valladolid/index.html,4
312,1250,Vigo Airport,Vigo,Spain,VGO,LEVX,42.2318000793457,-8.62677001953125,856,E,Europe/Madrid,airport,OurAirports,Vigo Airport,ChIJYbV9Z4qHJQ0Rvry9TTm7jtY,"Vigo Airport, Apdo. de Correos 1553, 36200 Vigo, Pontevedra, Spain",3.8,336,http://www.aena.es/es/aeropuerto-vigo/index.html,11
313,1251,Santander Airport,Santander,Spain,SDR,LEXJ,43.427101135253906,-3.82000994682312,16,E,Europe/Madrid,airport,OurAirports,Seve Ballesteros-Santander Airport,ChIJg87nxgFKSQ0RIMp7gV7SPHg,"Seve Ballesteros-Santander Airport, Carretera del aeropuerto, s/n, 39600 Maliaño, Cantabria, Spain",4.0,278,http://www.aena.es/es/aeropuerto-santander/index.html,19
314,1253,Sevilla Airport,Sevilla,Spain,SVQ,LEZL,37.41799926757813,-5.8931097984313965,112,E,Europe/Madrid,airport,OurAirports,Seville Airport,ChIJuZuEjRxmEg0ROif7oHd-UgE,"Seville Airport (SVQ), A-4, Km. 532, 41020 Sevilla, Spain",3.3,1249,http://www.aena.es/es/aeropuerto-sevilla/index.html,65
315,1264,Bordeaux-Mérignac Airport,Bordeaux,France,BOD,LFBD,44.8283004761,-0.7155560255050001,162,E,Europe/Paris,airport,OurAirports,Bordeaux Airport,ChIJiUN9X_XaVA0RJqyVF7JSDGE,"Bordeaux Airport (BOD), 33700 Mérignac, France",2.1,1795,http://www.bordeaux.aeroport.fr/,67
316,1265,Bergerac-Roumanière Airport,Bergerac,France,EGC,LFBE,44.82529830932617,0.5186110138893127,171,E,Europe/Paris,airport,OurAirports,Bergerac Dordogne Périgord Airport,ChIJnw6jEDraqhIRpClPv_Z_ogw,"Bergerac Dordogne Périgord Airport, Route d'agen, 24100 Bergerac, France",3.1,77,http://www.bergerac.aeroport.fr/,11
317,1268,Poitiers-Biard Airport,Poitiers,France,PIS,LFBI,46.58769989013672,0.30666598677635193,423,E,Europe/Paris,airport,OurAirports,Poitiers–Biard Airport,ChIJaZIHsvyV_UcRMZUIDeuLL2M,"Poitiers–Biard Airport, Rue S Lieut Raymond Collard 5, 86580 Biard, France",2.8,59,http://www.poitiers.aeroport.fr/,7
318,1273,Toulouse-Blagnac Airport,Toulouse,France,TLS,LFBO,43.629101,1.36382,499,E,Europe/Paris,airport,OurAirports,Toulouse-Blagnac Airport,ChIJtQnX3lKlrhIR9miCHdAX9GY,"Toulouse-Blagnac Airport (TLS), 31703 Blagnac, France",3.5,1374,http://www.toulouse.aeroport.fr/,78
319,1274,Pau Pyrénées Airport,Pau,France,PUF,LFBP,43.38000106811523,-0.4186109900474548,616,E,Europe/Paris,airport,OurAirports,Pyrenees Airport,ChIJy0-3o_FEVg0R0QN1RxIqWDM,"Pyrenees Airport, Route de l'Aéroport, 64230 Uzein, France",3.7,107,http://www.pau.aeroport.fr/,5
320,1276,Tarbes-Lourdes-Pyrénées Airport,Tarbes,France,LDE,LFBT,43.1786994934082,-0.006438999902456999,1260,E,Europe/Paris,airport,OurAirports,Tarbes–Lourdes–Pyrénées Airport,ChIJ7RLi6KsqVg0RuuU5qjyzkl4,"Tarbes–Lourdes–Pyrénées Airport, 65290 Juillan, France",3.8,78,http://www.tlp.aeroport.fr/,5
321,1280,Biarritz-Anglet-Bayonne Airport,Biarritz-bayonne,France,BIQ,LFBZ,43.4683333,-1.5311111000000002,245,E,Europe/Paris,airport,OurAirports,Biarritz Airport,ChIJbQb-f1YVUQ0R1lufnEoiWho,"Biarritz Airport, 7 Espl. de l'Europe, 64600 Anglet, France",3.3,219,http://www.biarritz.aeroport.fr/,14
322,1309,Dole-Tavaux Airport,Dole,France,DLE,LFGJ,47.042685999999996,5.4350629999999995,645,E,Europe/Paris,airport,OurAirports,Dole–Jura Airport,ChIJqdrn8Bi18kcRXPxzA8zoNbw,"Dole–Jura Airport, Rue de Dole, 39500 Tavaux, France",3.2,79,http://www.aeroportdolejura.com/,3
323,1320,Metz-Nancy-Lorraine Airport,Metz,France,ETZ,LFJL,48.9821014404,6.25131988525,870,E,Europe/Paris,airport,OurAirports,Lorraine Airport (Nancy/Metz),ChIJIbJitMLplEcRyPJpCpsaXAc,"Lorraine Airport (Nancy/Metz), Route de Vigny, 57420 Goin, France",3.3,131,http://lorraineairport.com/,5
324,1321,Bastia-Poretta Airport,Bastia,France,BIA,LFKB,42.55270004272461,9.48373031616211,26,E,Europe/Paris,airport,OurAirports,Aéroport de Bastia Poretta,ChIJ0zGMNSE81xIRdW39dGcDHKs,"Aéroport de Bastia Poretta, 20290 Lucciana, France",2.6,202,http://www.bastia.aeroport.fr/,36
325,1322,Calvi-Sainte-Catherine Airport,Calvi,France,CLY,LFKC,42.52444439999999,8.793055599999999,209,E,Europe/Paris,airport,OurAirports,Calvi – Sainte-Catherine Airport,ChIJ439tdSrr0BIRLhYxwra2BHA,"Calvi – Sainte-Catherine Airport, Route de L Aéroport, 20260 Calvi, France",3.5,71,http://www.calvi.aeroport.fr/,20
326,1323,Figari Sud-Corse Airport,Figari,France,FSC,LFKF,41.5005989074707,9.097780227661133,87,E,Europe/Paris,airport,OurAirports,Figari–Sud Corse Airport,ChIJl9pJtYvT2xIRNkKtc-fcylA,"Figari–Sud Corse Airport, Route de l'aeroport, 20114 Figari, France",2.6,154,http://www.figari.fr/aeroport-figari-sud-corse/,14
327,1324,Ajaccio-Napoléon Bonaparte Airport,Ajaccio,France,AJA,LFKJ,41.92359924316406,8.8029203414917,18,E,Europe/Paris,airport,OurAirports,Ajaccio Napoleon Bonaparte Airport,ChIJpYHYVfRq2hIRXpegIG5IhFM,"Ajaccio Napoleon Bonaparte Airport, Route de Campo Dell Oro, 20090 Ajaccio, France",3.4,256,http://www.2a.cci.fr/Aeroport-Napoleon-Bonaparte-Ajaccio.html,39
328,1330,Clermont-Ferrand Auvergne Airport,Clermont-Ferrand,France,CFE,LFLC,45.786701202399996,3.1691699027999998,1090,E,Europe/Paris,airport,OurAirports,Clermont-Ferrand Auvergne Airport,ChIJa7PcsAoe90cRdUd7_Hs6_dU,"Clermont-Ferrand Auvergne Airport, 1 Rue Adrienne Bolland, 63510 Aulnat, France",3.4,121,http://www.clermont-aeroport.com/,9
329,1335,Lyon Saint-Exupéry Airport,Lyon,France,LYS,LFLL,45.725556,5.081111,821,E,Europe/Paris,airport,OurAirports,Lyon-Saint Exupéry Airport,ChIJzYSfACvJ9EcR8FWyyQxR3IY,"Lyon-Saint Exupéry Airport (LYS), 69125 Colombier-Saugnieu, France",2.8,2378,https://www.lyonaeroports.com/,135
330,1350,Saint-Étienne-Bouthéon Airport,St-Etienne,France,EBU,LFMH,45.54059982299805,4.2963900566101065,1325,E,Europe/Paris,airport,OurAirports,Saint-Étienne–Loire Airport,ChIJNWfiSRZN9EcRkNvXdkpNfLs,"Saint-Étienne–Loire Airport, 42160 Andrézieux-Bouthéon, France",3.4,51,http://www.saint-etienne.aeroport.fr/,5
331,1352,Carcassonne Airport,Carcassonne,France,CCF,LFMK,43.21599960327149,2.3063199520111084,433,E,Europe/Paris,airport,OurAirports,Carcassonne Airport,ChIJ5Z_Iw_YtrhIRTWFmjzrct1k,"Carcassonne Airport, Route de Montréal, 11000 Carcassonne, France",3.0,138,http://www.aeroport-carcassonne.com/,10
332,1353,Marseille Provence Airport,Marseille,France,MRS,LFML,43.439271921999996,5.22142410278,74,E,Europe/Paris,airport,OurAirports,Marseille Provence Airport,ChIJNxju6f3lyRIRLv9pj4v_c-I,"Marseille Provence Airport (MRS), 13727 Marignane, France",3.1,1408,https://www.marseille.aeroport.fr/,136
333,1354,Nice-Côte d'Azur Airport,Nice,France,NCE,LFMN,43.658401489300005,7.215869903560001,12,E,Europe/Paris,airport,OurAirports,Nice Côte d'Azur Airport,ChIJ85mulxjRzRIRtMEjyRwrU4A,"Nice Côte d'Azur Airport (NCE), Rue Costes et Bellonte, 06206 Nice, France",3.4,1722,https://www.nice.aeroport.fr/,135
